{'Aberdeen North Foodbank': {'address': '10 Urquhart Road, Aberdeen AB24 5LL, United Kingdom', 'latitude': '57.15445949999999', 'longitude': '-2.0932259999999587', 'website': 'http:\\/\\/aberdeennorth.foodbank.org.uk\\/', 'items_needed': ['Long-life Fruit Juice', 'UHT Milk', 'Tinned Meat', 'Tinned Fruit', 'Rice Pudding', 'Cereal', 'Chopped Tomatoes', 'Biscuits', 'Tea Bags', 'Household Cleaning Items', 'Toiletries']}, 'Aberdeen South Foodbank': {'address': 'TLC, Citrus House, Greenbank Road, Aberdeen, AB12 3BQ', 'latitude': '57.1264213', 'longitude': '-2.0836085', 'website': 'https:\\/\\/www.tlc.org.uk', 'error': 'Bad status code'}, 'Aberdeenshire North Foodbank': {'address': "4 St James's Place Inverurie Aberdeenshire AB51 3UB", 'latitude': '57.276828', 'longitude': '-2.3724853', 'website': 'http:\\/\\/aberdeenshirenorth.foodbank.org.uk\\/', 'items_needed': ['Powdered Milk', 'Tinned Vegetables', 'Tinned Hot Dogs', 'Tins of Meat (Stewed Steak, Mince & oinions, etc)', 'Small jars of Coffee', 'Packets of Pasta Sauces', 'Razors / Shaving Foam', 'Deodorants']}, 'Aberdeenshire South Foodbank': {'address': 'Banchory West Parish Church of Scotland, High Street, Banchory, Aberdeenshire AB31 5TB, UK', 'latitude': '57.0515718', 'longitude': '-2.5051478000000316', 'website': 'http:\\/\\/aberdeenshiresouth.foodbank.org.uk\\/', 'items_needed': ['tinned meat', 'dried milk', 'stant mash', 'breakfast cereals', 'tea bags (80s)']}, 'Abergavenny Foodbank': {'address': 'Abergavenny Baptist Church Frogmore Steet Abergavenny,  NP7 5AH', 'latitude': '51.8249064', 'longitude': '-3.021363199999996', 'website': 'http:\\/\\/abergavenny.foodbank.org.uk', 'items_needed': ['Long life Fruit Juice', 'Instant Mashed Potato', 'Sponge Puddings', 'Tomato Sauce/Brown Sauce']}, 'Abergele District Foodbank': {'address': 'Bridge Street, Abergele, Conwy LL22 7HA, UK', 'latitude': '53.28429382127112', 'longitude': '-3.580270234358636', 'website': 'http:\\/\\/abergeledistrict.foodbank.org.uk\\/', 'items_needed': ['tinned fruit (400gms)', "tea bags (80's)", 'dried pasta (500gms)', 'UHT milk (1 litre)', 'Breakfast Cereals']}, 'Airdrie Foodbank': {'address': 'Calderbank Parish Church, Calderbank, United Kingdom', 'latitude': '55.8457861', 'longitude': '-3.9655156000000034', 'website': 'https:\\/\\/airdrie.foodbank.org.uk\\/', 'items_needed': ['Milk (UHT)', 'Juice (long life)', 'Tinned Meat', 'Tinned Rice Pudding']}, 'Alton Foodbank': {'address': 'Alton Food Bank, Market Street, Alton GU34 1HD, United Kingdom', 'latitude': '51.1487033', 'longitude': '-0.9781101999999464', 'website': 'http:\\/\\/alton.foodbank.org.uk', 'items_needed': ['Pasta Sauce (Jars and Packets)', 'Tea', 'Coffee', 'Fruit juice', 'Rice pudding']}, 'Ammanford Foodbank': {'address': 'Ammanford Evangelical Church, Wind Street, Ammanford, Carmarthenshire, United Kingdom', 'latitude': '51.7916404', 'longitude': '-3.9896839000000455', 'website': 'http:\\/\\/ammanford.foodbank.org.uk\\/', 'items_needed': ['Custard', 'Rice Pudding', 'Tinned Potatoes', 'Instant Mash', 'Long-life Milk', 'Powdered Milk', 'Jam', 'Sugar']}, 'Andover Foodbank': {'address': 'Alexandra Road, Andover SP10 3AD, United Kingdom', 'latitude': '51.20800179999999', 'longitude': '-1.487977399999977', 'website': 'http:\\/\\/andover.foodbank.org.uk\\/', 'items_needed': ['Tinned meat', 'Tinned fish', 'Tinned rice pudding', 'Long life milk', 'Long life fruit juice']}, 'Anglesey Foodbank': {'address': 'Elim Church Thomas Street HolyheadAnglesey LL65 1RR', 'latitude': '53.3100318', 'longitude': '-4.6345397', 'website': 'http:\\/\\/anglesey.foodbank.org.uk\\/', 'items_needed': ['Tinned fruit', 'Tinned meat', 'Tinned fish', 'Tinned soup', 'Breakfast cereals', 'Instant mash', 'Noodles']}, 'Angus Foodbank': {'address': '29 Craig O Loch Rd, Forfar, Angus DD8 1BZ, UK', 'latitude': '56.64357517982014', 'longitude': '-2.895608842397337', 'website': 'http:\\/\\/angus.foodbank.org.uk', 'items_needed': ['Tinned Meat', 'Tinned Tomatoes', 'Powdered Milk', 'Tinned Vegetables', 'Instant Noodles', 'Broth Mix', 'Cup a Soup', 'Pasta Sauce', 'Sponge Pudding', 'Tinned Fruit']}, 'Antrim Foodbank': {'address': 'Oasis Antrim 10d High Street Antrim BT41 4AN', 'latitude': '54.714463948945436', 'longitude': '-6.21808516170438', 'website': 'http:\\/\\/www.antrim.foodbank.org.uk', 'items_needed': ['Soap', 'Shower Gel', 'Deodorant (roll-on only)', 'Toothbrushes', 'Shampoo', 'Feminine Hygiene', 'Shaving Foam', 'Razors']}, 'Arden Foodbank': {'address': 'B495DZ, B80 7NJ', 'latitude': '52.271353', 'longitude': '-1.8937951999999996', 'website': 'http:\\/\\/arden.foodbank.org.uk', 'items_needed': ['tinned fruit (400gms)', "tea bags (80's)", 'dried pasta (500gms)', 'UHT milk (1 litre)', 'Breakfast Cereals']}, 'Arfon Foodbank': {'address': 'Cibyn Bungalow, Caernarfon LL55 2ED, UK', 'latitude': '53.14035283178224', 'longitude': '-4.254094022784443', 'website': 'http:\\/\\/arfon.foodbank.org.uk', 'items_needed': ['tinned fruit (400gms)', "tea bags (80's)", 'dried pasta (500gms)', 'UHT milk (1 litre)', 'Breakfast Cereals']}, 'Armagh Foodbank': {'address': 'Armagh Elim Church, Drummanmore Road, Armagh, BT61 8RN', 'latitude': '54.3657611', 'longitude': '-6.6289243', 'website': 'http:\\/\\/armagh.foodbank.org.uk\\/', 'items_needed': ['tinned meat', "tea bags (80's)", 'Coffee', 'UHT milk (1 litre)', 'Toiletries (Toothpaste, Shampoo , Shower Gel ect.) ']}, 'Arnold Foodbank': {'address': 'Daybrook Baptist Church, Mansfield Road, Nottingham NG5 6AA', 'latitude': '52.995966', 'longitude': '-1.137581', 'website': 'http:\\/\\/arnold.foodbank.org.uk', 'items_needed': ['tinned tomatoes', 'pasta sauces', 'tinned vegetables', 'tinned meat and fish', 'tinned fruit and puddings', 'biscuits, chocolate,snacks', 'suger', 'coffee', 'rice', 'potatoes', "tea bags (80's)", 'toiletries -toothpaste, toothbrushes, razors, sanitary supplies', 'shower gel, toilet paper', 'Breakfast Cereals', 'cleaning products', 'can openers']}, 'Ashby Foodbank': {'address': 'Ashby-de-la-Zouch, UK', 'latitude': '52.746688744260496', 'longitude': '-1.4756125499581003', 'website': 'http:\\/\\/ashby.foodbank.org.uk\\/', 'items_needed': ['Tinned Truit (400gms)', 'Tinned Sponge Puddings', 'Tinned Meat Pies', 'UHT Milk (1 litre)', 'Breakfast Cereals']}, 'Aston &amp; Nechells Foodbank': {'address': 'A47, Birmingham B7, UK', 'latitude': '52.49061092929141', 'longitude': '-1.8772143850723069', 'website': 'http:\\/\\/astonnechells.foodbank.org.uk', 'items_needed': ['Long life fruit juice or squash', 'Tinned fruit', 'Tinned tomatoes', 'UHT milk', 'Toiletry items']}, 'Atherton &amp; Leigh Foodbank': {'address': 'Atherton Parish Church St John the Baptist Market Street Atherton Manchester M46 0DD', 'latitude': '53.523589', 'longitude': '-2.489679', 'website': 'http:\\/\\/athertonleigh.foodbank.org.uk', 'items_needed': ['Size 5 nappies', 'Size 4 nappies', 'Baby wipes']}, 'Aylesbury Foodbank': {'address': 'United Kingdom', 'latitude': '51.823394418293745', 'longitude': '-0.8501559799015013', 'website': 'https:\\/\\/aylesbury.foodbank.org.uk', 'items_needed': ['Tinned meat', 'Tinned fish', 'Tinned fruit', 'Tinned vegetables', 'Tinned custard', 'Tinned rice pudding', 'UHT Fruit Juice', 'UHT Milk', 'Instant mash potato', 'Powdered (dried) milk', 'Chocolate', 'Single Toothbrushes']}, 'Ayrshire (East) Foodbank': {'address': 'Ayrshire (East) foodbank Darvel Parish Church Hastings Square DARVEL KA17 0DR', 'latitude': '55.6093719', 'longitude': '-4.2822103', 'website': 'http:\\/\\/ayrshireeast.foodbank.org.uk', 'items_needed': ['tinned fruit (400gms)', "tea bags (80's)", 'dried pasta (500gms)', 'UHT milk (1 litre)', 'Breakfast Cereals']}, 'B30 Foodbank': {'address': 'The Cotteridge Church 24 Pershore Road South Birmingham B30 3EJ', 'latitude': '52.4153398', 'longitude': '-1.9303981', 'website': 'http:\\/\\/b30.foodbank.org.uk\\/', 'items_needed': ['Sugar', 'Fruit Juice', 'Instant Mashed Potatoes', 'Custard', 'Coffee', 'Squash', 'macaroni cheese', 'treats', 'carrier bags']}, 'Ballycastle Foodbank': {'address': 'Coleraine Road Ballycastle Northern Ireland BT54 6BA', 'latitude': '55.1995724', 'longitude': '-6.25901250000004', 'website': 'https:\\/\\/ballycastle.foodbank.org.uk', 'items_needed': ['tinned fruit (400gms)', "tea bags (80's)", 'dried pasta (500gms)', 'UHT milk (1 litre)', 'Breakfast Cereals']}, 'Ballymena Foodbank': {'address': 'Green Pastures, The Peoples Church, Fenaghy Road, Galgorm, Ballymena, BT42 1AQ', 'latitude': '54.8633043', 'longitude': '-6.3268558', 'website': 'http:\\/\\/ballymena.foodbank.org.uk\\/', 'items_needed': ['tinned fruit (400gms)', "tea bags (80's)", 'dried pasta (500gms)', 'UHT milk (1 litre)', 'Breakfast Cereals']}, 'Ballymoney Foodbank': {'address': '40 Ballymena Rd, Ballymoney, Ballymoney BT53 7EY, UK', 'latitude': '55.06830174100286', 'longitude': '-6.4936049669341855', 'website': 'http:\\/\\/ballymoney.foodbank.org.uk\\/', 'items_needed': ['tinned fruit (400gms)', "tea bags (80's)", 'dried pasta (500gms)', 'UHT milk (1 litre)', 'Breakfast Cereals']}, 'Banbury Foodbank': {'address': 'Horse Fair, Banbury OX16 0AH, United Kingdom', 'latitude': '52.0607279', 'longitude': '-1.3406559000000016', 'website': 'http:\\/\\/banbury.foodbank.org.uk', 'items_needed': ['Tinned meat', 'Tinned fish', 'UHT fruit juice', 'UHT milk (1 litre)', 'Coffee']}, 'Bangor NI Foodbank': {'address': 'Bangor Elim Church Balloo Crescent Bangor BT19 7WP', 'latitude': '54.6421172', 'longitude': '-5.6741197', 'website': 'http:\\/\\/bangorni.foodbank.org.uk', 'items_needed': ['tinned fruit (400gms)', "tea bags (80's)", 'dried pasta (500gms)', 'UHT milk (1 litre)', 'Breakfast Cereals']}, 'Barking Foodbank': {'address': '93 Axe Street Barking IG11 7LZ ', 'latitude': '51.5350432', 'longitude': '0.07827700000007098', 'website': 'http:\\/\\/barking.foodbank.org.uk', 'items_needed': ['tinned fruit (400gms)', "tea bags (80's)", 'dried pasta (500gms)', 'UHT milk (1 litre)', 'Breakfast Cereals']}, 'Barnsley Foodbank': {'address': 'Unit 14 Aldham Industrial Estate Wombwell Barnsley South Yorkshire  S73 8HA', 'latitude': '53.5333336', 'longitude': '-1.4127164999999877', 'website': 'http:\\/\\/barnsley.foodbank.org.uk\\/', 'items_needed': ['tinned fruit (400gms)', "tea bags (80's)", 'dried pasta (500gms)', 'UHT milk (1 litre)', 'Breakfast Cereals']}, 'Barrow Foodbank': {'address': 'Abbey Road Baptist Church Abbey Road (corner of park drive) Barrow-in-Furness LA14 5EY', 'latitude': '54.1208193', 'longitude': '-3.2193293999999923', 'website': 'http:\\/\\/barrow.foodbank.org.uk', 'items_needed': ['UHT Fruit Juice', 'Tinned fruit', 'Jam', 'Sponge Puddings', 'Tea bags', 'Coffee']}, 'Basildon Foodbank': {'address': 'Pitsea Leisure Centre,  Northlands Pavement,  Pitsea,  Basildon,  Essex,  SS13 3DU', 'latitude': '51.5657071', 'longitude': '0.5040668000000323', 'website': 'http:\\/\\/basildon.foodbank.org.uk\\/', 'items_needed': ['tinned fruit (400gms)', "tea bags (80's)", 'dried pasta (500gms)', 'UHT milk (1 litre)', 'Breakfast Cereals']}, 'Basingstoke Foodbank': {'address': '50-54 Sarum Hill, Basingstoke, Hampshire RG21, UK', 'latitude': '51.26281596133823', 'longitude': '-1.0915406047752185', 'website': 'http:\\/\\/basingstoke.foodbank.org.uk', 'items_needed': ['Tinned meat (not pies or corned beef please)', 'packet desserts', 'Microwave desserts', 'Shaving gels / cream', 'Deodorants for men & women', 'Washing up liquid', 'Washing tablets (Clothes)', 'Tinned fruit', 'Tinned vegetables', 'Tinnned spaghetti / ravioli', 'Cold cereals', 'oat biscuits / crackers / crisp breads', 'sweet / savoury spreads (Peanut butter / Marmite)', 'uht long-life fruit juice', 'biscuits', 'instant mash packets', 'powdered or uht long-life milk', 'tinned rice pudding', 'toiletries']}, 'Bath Foodbank': {'address': 'Manvers Street Baptist Church,   Manvers Street,   Bath BA1 1JW', 'latitude': '51.37888179999999', 'longitude': '-2.356582000000003', 'website': 'http:\\/\\/bath.foodbank.org.uk', 'items_needed': ["Men's Toiletries", 'Rice Pudding (Tinned)', 'Bars of Chocolate', 'Custard (Tinned)', 'Sponge Puddings', 'Jam', 'Instant Mash']}, 'Bedford Foodbank': {'address': '71 Murdock Rd, Bedford, Bedford MK41 7PL, UK', 'latitude': '52.1547538', 'longitude': '-0.47352150000006077', 'website': 'http:\\/\\/bedford.foodbank.org.uk', 'items_needed': ['UHT Fruit Juice', 'UHT Milk', 'Tinned Tomatoes', 'Tinned Fruit', 'Tinned Meat (Casserole/Stew)', 'Tinned Vegetables', 'Jar of Pasta Sauce', 'Cup-a-Soup', 'Tinned Rice Pudding', 'Tinned Spaghetti', 'Rice (small, 250g/500g)', 'Squash', 'Biscuits', 'Tinned Custard', 'Washing Up Liquid', 'Laundry Washing Tablets', 'Multi-Purpose Cleaning Spray', 'Shower Gel', 'Deodorant (male+female)', 'Shampoo', 'Tin Openers', 'Secondhand Saucepans (clean)']}, 'Bedworth Foodbank': {'address': '22 Coventry Rd, Bedworth, Warwickshire CV12 8NN, UK', 'latitude': '52.47701507176', 'longitude': '-1.4724144514510726', 'website': 'https:\\/\\/bedworth.foodbank.org.uk', 'items_needed': ['Tinned spagetti', 'Fruit Juice', 'Jam', 'Custard', 'Tinned Fish']}, 'Bestwood &amp; Bulwell Foodbank': {'address': "St Philip's Church, Knights Close, off Old Farm Road, Top Valley, Nottingham, NG5 9AJ", 'latitude': '53.0053283', 'longitude': '-1.1684814', 'website': 'http:\\/\\/bestwoodbulwell.foodbank.org.uk', 'items_needed': ['Tinned Fish', 'Dried Milk Powder', 'Rice Pudding', 'Tinned Tomatoes', 'Tinned Potatoes', 'Fruit Juice', 'Long-Life Milk', 'Tinned Spaghetti', 'Jar Pasta Sauce']}, 'Bexhill Foodbank': {'address': '19-20 Station Road, Bexhill-on-Sea TN40 1RE, United Kingdom', 'latitude': '50.8412666', 'longitude': '0.4740028999999595', 'website': 'https:\\/\\/bexhill.foodbank.org.uk\\/', 'items_needed': ['Milk – UHT or powdered', 'Sugar (500g)', 'Orange or lemon squash', 'Tinned potatoes or Instant mashed potato', 'Pasta sauces', 'tinned fruit', 'Tinned tomatoes', 'Breakfast cereals', 'Rice pudding (tinned)', 'Ready made custard', 'Tea bags', 'Instant coffee', 'Jam', 'Peanut butter', 'Biscuits', 'Chocolate treats', 'tinned vegatables', 'Soup (cans)', 'Tinned meat']}, 'Bexley Foodbank': {'address': 'c\\/o Avery Hill Christian Fellowship, Southspring, Sidcup, DA15 8EA', 'latitude': '51.445', 'longitude': '0.0847633', 'website': 'http:\\/\\/bexley.foodbank.org.uk', 'items_needed': ['Coffee', 'Dried Noodles', 'Squash & Long Life Fruit Juice', 'Long Life Milk', 'Toiletries: Toilet Rolls, Washing Powder, Disposable Razors', 'Tinned Meat & Tinned Fish', 'Tinned Fruit', 'Rice', 'Pasta Sauce', 'Sugar', 'Tinned Spaghetti', 'Deodrant', 'Tinned Veg', 'Nappies - Sizes 5 & 6', 'Packets of Custard', 'Sponge Puddings']}, 'Bicester Foodbank': {'address': '29a Market Square Bicester OX26 6AG', 'latitude': '51.896563', 'longitude': '-1.1510806', 'website': 'http:\\/\\/bicester.foodbank.org.uk', 'items_needed': ['tinned fruit (400gms)', "tea bags (80's)", 'dried pasta (500gms)', 'UHT milk (1 litre)', 'Breakfast Cereals']}, 'Billingham & Stockton Borough Foodbank': {'address': '16 W Precinct, Billingham, Stockton-on-Tees TS23 2NL, UK', 'latitude': '54.60714609999999', 'longitude': '-1.2942606000000296', 'website': 'https:\\/\\/billinghamstocktonborough.foodbank.org.uk', 'items_needed': ['tinned tomatoes', 'tinned fruit / custard', 'juice', 'pasta / curry sauces', 'coffee', 'sugar', 'UHT milk (1 litre)', 'washing powder', 'Tinned rice pudding']}, 'Birmingham Central Foodbank': {'address': 'Birmingham City Church, Parade, Birmingham, UK', 'latitude': '52.48188', 'longitude': '-1.9104446000000053', 'website': 'http:\\/\\/birminghamcentral.foodbank.org.uk', 'items_needed': ['UHT Milk', 'Cereal', 'Long Life Fruit Juice / Squash', 'Tinned Fruit', 'Tinned Vegetables', 'Tinned Meat', 'Pasta Sauce', 'Crisps', 'Small jars of instant coffee', 'Good quality carrier bags/ bags for life']}, 'Blackburn Foodbank': {'address': '59 Oakenhurst Rd, Blackburn BB2 1SN, UK', 'latitude': '53.74674878900507', 'longitude': '-2.493109256029129', 'website': 'http:\\/\\/blackburn.foodbank.org.uk', 'items_needed': ['Tinned Spagetti', 'Tinned Soup', 'Milk (UHT)', 'Tinned Tomatoes', 'Pasta Sauces', 'Tinned Tuna', 'Tinned Meat Meals', 'Tinned Ham & Corned Beef', 'Tinned Fruit', 'Tinned Chickpeas', 'Tinned Rice Pudding']}, 'Blackwood &amp; District': {'address': 'Blackwood NP12 3LY, UK', 'latitude': '51.6670767', 'longitude': '-3.207664199999954', 'website': 'http:\\/\\/blackwooddistrict.foodbank.org.uk\\/', 'items_needed': ['tinned fruit (400gms)', "tea bags (80's)", 'dried pasta (500gms)', 'UHT milk (1 litre)', 'Breakfast Cereals']}, 'Blaenau Gwent Foodbank': {'address': 'The Christian Centre, Crown Buildings, Ebbw Vale, NP23 6YQ', 'latitude': '51.7862828', 'longitude': '-3.2115384999999605', 'website': 'http:\\/\\/blaenaugwent.foodbank.org.uk\\/', 'items_needed': ['UHT Milk', 'Coffee', 'Tinned Fish', 'Tinned Meat', 'Tinned Fruit / Custard', 'Tinned Rice Pudding', 'Tinned Sponge Puddings', 'Tinned Potatoes', 'Tinned Carrots', 'Tinned Peas', 'Tinned Tomatoes', 'Noodles/Pot Noodles', 'Tinned Soup', 'Rice', 'Paste / Jams', 'Fruit Juice / Squash', 'Curry / Pasta Sauces', 'Biscuits', "Chocolate /Children's Sweets", 'Toiletries', 'Dog / Cat Pet Food']}, 'Bloxwich & Blakenall Foodbank': {'address': 'Blakenall Village Centre, Thames Road, Blakenall, Walsall, WS3 1LZ', 'latitude': '52.6146742', 'longitude': '-1.9866676999999981', 'website': 'http:\\/\\/bloxwichblakenall.foodbank.org.uk', 'items_needed': ['tinned fruit (400gms)', "tea bags (80's)", 'dried pasta (500gms)', 'UHT milk (1 litre)', 'Breakfast Cereals']}, 'Bognor Regis Foodbank': {'address': 'Argyle Road, Bognor Regis PO21 1DY, United Kingdom', 'latitude': '50.78343719999999', 'longitude': '-0.678592799999933', 'website': 'http:\\/\\/bognorregis.foodbank.org.uk', 'items_needed': ['Soup', 'UHT Milk', 'Fruit Juice/Squash', 'Tinned Fruit', 'Coffee (100g jars)', 'Tinned Rice Pudding', 'Rice', 'Spreads (Jam, Peanut Butter, Marmite, Chocolate Spread etc.)', 'Tinned fish', 'Tinned Vegetables']}, 'Borehamwood Foodbank': {'address': "St Teresa's Church 291 Shenley Rd, Borehamwood, Herts, WD6 1TG", 'latitude': '51.6601243', 'longitude': '-0.2689127', 'website': 'http:\\/\\/borehamwood.foodbank.org.uk\\/', 'items_needed': ['Tinned meat', 'Tinned fish', 'Tinned vegetables', 'UHT milk (1 litre)', 'Tinned fruit', 'Cooking sauces', 'Coffee', 'Sugar (500g)', 'Fruit juice (long life)', 'Jam', 'Instant mashed potato', 'Tinned pudding']}, 'Boston Foodbank': {'address': '23 Fenside Rd, Boston PE21 8HY, UK', 'latitude': '52.98280026414803', 'longitude': '-0.0414473047546835', 'website': 'http:\\/\\/boston.foodbank.org.uk\\/', 'items_needed': ['Fruit squash or long life fruit juice 1 Ltr ', 'tinned fish 400g', 'tinned meat 400g', 'UHT milk (1 litre)', 'Toiletries']}, 'Bourne Foodbank': {'address': 'Bourne United Reformed Church Eastgate Bourne Lincolnshire Pe10 9JY', 'latitude': '52.7654488', 'longitude': '-0.3642524', 'website': 'http:\\/\\/www.bournefoodbank.org.uk\\/', 'error': 'Bad status code'}, 'Bournemouth Foodbank': {'address': '118 Haviland Rd, Bournemouth BH7 6HW, UK', 'latitude': '50.728193', 'longitude': '-1.8356185999999752', 'website': 'https:\\/\\/bournemouth.foodbank.org.uk\\/', 'items_needed': ['Beans', 'Pasta', 'Cereal']}, 'Bracknell Foodbank': {'address': 'The Kerith Centre, Kerith Community Church Bracknell, Church Rd, Bracknell, Bracknell Forest RG12 1EH', 'latitude': '51.4144311', 'longitude': '-0.746491', 'website': 'http:\\/\\/bracknell.foodbank.org.uk', 'items_needed': ['Tinned fruit', 'Tinned fish', 'Pasta Sauce (tins or jars)', 'Tinned tomatoes', 'Custard (tinned or packet)', 'Toilet rolls', 'Biscuits', 'Shampoo & shower gel', 'Tinned meat', 'Tinned vegetables (inc potatoes)', 'Jam', 'Sponge pudding (tinned or twinpack)', 'Fruit Juice (long life 1L)', 'Tea & Coffee', 'Long grain rice (500g or 1kg)', 'Rice Pudding (long life)']}, 'Bradford Central Foodbank': {'address': '86 Captain Street, Bradford BD1 4BL', 'latitude': '53.7967489984854', 'longitude': '-1.7478829622268677', 'website': 'http:\\/\\/bradfordcentral.foodbank.org.uk', 'items_needed': ['Christmas treats', 'toilet rolls', 'Tinned fish', 'UHT milk', 'tinned meat', 'fruit juice', 'deodorant', 'shampoo']}, 'Bradford North Foodbank': {'address': 'Inspire Bradford Business Park, Bradford BD10 0JE, UK', 'latitude': '53.823481', 'longitude': '-1.711591999999996', 'website': 'http:\\/\\/bradfordnorth.foodbank.org.uk\\/', 'items_needed': ['*Sweet Biscuits*', '*Tinned Custard or Rice Pudding*', '*Sponge Puddings*', '*Dried Milk Powder*', '*UHT Fruit Juice* (1L or 3 x individual)', 'UHT Milk', 'Tinned Fruit', 'Tinned Fish', 'Pasta Sauce', 'Spreads e.g. jam', 'Chocolate Bars', 'Instant Coffee (SMALL SIZE)', 'Granulated Sugar 1Kg or 2Kg']}, 'Bradford on Avon Foodbank': {'address': 'The Hub @ BA15, Church Street, Bradford on Avon, BA15 1LS', 'latitude': '51.34720799999999', 'longitude': '-2.252877699999999', 'website': 'https:\\/\\/bradfordonavon.foodbank.org.uk', 'items_needed': ['Tinned fruit', 'Tinned rice pudding', 'Tinned Hot Dogs (or other tinned meat)', 'UHT fruit juice (1 Litre)', 'UHT milk (1 litre)', 'Small jars of coffee']}, 'Braintree Area Foodbank': {'address': 'Lakes Industrial Park, Chapel Hill, Braintree, United Kingdom', 'latitude': '51.8751706', 'longitude': '0.5654293000000052', 'website': 'http:\\/\\/braintreearea.foodbank.org.uk\\/', 'items_needed': ['Packet mash potato', '1ltr Long life fruit juice', 'Tinned potatoes', 'Tinned spaghetti', 'Sugar 500g bags', 'Sponge puddings']}, 'Brecon Foodbank': {'address': 'St Johns Centre, Pendre Close, Brecon. LD3 9EA', 'latitude': '51.9520007', 'longitude': '-3.3927188000000115', 'website': 'http:\\/\\/brecon.foodbank.org.uk\\/', 'items_needed': ['Long-life fruit juice', 'Powdered milk', 'Instant mash', 'Instant coffee', 'Hot chocolate and similar', 'Tinned potatoes', 'Long-life sponge puddings', 'Toilet paper', 'Shower gel.', 'Shampoo & conditioner', 'Laundry conditioner', 'Shaving foam', 'Antiperspirant/deodorant']}, 'Brent Foodbank': {'address': 'The Vestry Hall Neasden Lane  London  NW10 2TS', 'latitude': '51.5494527', 'longitude': '-0.2496200000000499', 'website': 'http:\\/\\/brent.foodbank.org.uk', 'items_needed': ['Tinned fruit', 'Tinned vegetables', 'Rice pudding', 'Jam', 'Soup', 'Custard', 'Tinned meat', 'Tinned fish', ' ', ' ']}, 'Brentwood Foodbank': {'address': '165 Hanging Hill Lane, Brentwood, UK', 'latitude': '51.6274667', 'longitude': '0.344313800000009', 'website': 'http:\\/\\/brentwood.foodbank.org.uk', 'items_needed': ['Tinned Potatoes', 'Tinned Spaghetti', 'Tinned Tomatoes', 'Tinned Ham', 'Tinned Sardines', 'Tinned Salmon', 'Tinned Tuna', 'All Day Breakfast', 'Tinned Meat Pies', 'Custard', 'Ravioli', 'Rice Pudding', 'Jars of Pasta Sauces', 'Savoury Rice', 'Noodles', 'Pasta', 'Instant Coffee', 'Sugar', 'Jams', 'Squash', 'Packets of rice', 'Washing Power/Liquids', 'Show Gel/Shampoo', 'Toothpaste', 'Deodorants', 'CHRISTMAS SUPPLIES']}, 'Bridgend Foodbank': {'address': '79a Nolton Street, Bridgend CF31 3AA, United Kingdom', 'latitude': '51.5037703', 'longitude': '-3.5766347999999653', 'website': 'http:\\/\\/bridgend.foodbank.org.uk', 'items_needed': [' Tinned Corned Beef/Spam/Tuna', 'Tinned Carrots/Sweetcorn/Potatoes', 'Tinned Rice Pudding/Custard', 'Instant Mash', 'Cereals', ' Coffee (small)', 'Jam', 'UHT Milk or Long Life Juice', 'Chocolate & Biscuits', 'Crisps & snacks', 'Toiletries - shower gel, toothpaste etc']}, 'Bridgwater Foodbank': {'address': 'Mount Street Day Centre Mount Street Bridgwater Somerset TA6 3ER', 'latitude': '51.1287314', 'longitude': '-3.0077732', 'website': 'http:\\/\\/bridgwater.foodbank.org.uk\\/', 'items_needed': ['Milk (UHT or powdered)', 'Sugar', 'Fruit juice (carton)', 'Sponge pudding (tins)', 'Biscuits or snack bars', 'Tinned meat', 'Tinned fish', 'Tinned fruit']}, 'Bristol North West Foodbank': {'address': 'The Parish Church of Saint Andrew Avonmouth, Bristol, Bristol, City of Bristol BS11, UK', 'latitude': '51.5009479', 'longitude': '-2.6984041', 'website': 'http:\\/\\/bristolnorthwestfoodbank.org.uk\\/', 'error': 'No items found'}, 'Bromley Borough Foodbank': {'address': 'United Reform Church 20 Widmore Road Bromley Kent BR1 1RY', 'latitude': '51.405824', 'longitude': '0.016950199999996585', 'website': 'http:\\/\\/bromleyborough.foodbank.org.uk\\/', 'items_needed': ['Tinned Vegetables', 'Tinned Tomatoes', 'Angel Delight/Jellies', 'Confectionery', 'Size 4 and 5 Nappies', 'Coffee', 'Sugar', 'Toiletries', 'Bags for life are also very much appreciated']}, 'Broxbourne Foodbank': {'address': '18 Fairways, New River Trading Estate, Cheshunt EN8 0NJ', 'latitude': '51.71953610000001', 'longitude': '-0.03616510000006201', 'website': 'http:\\/\\/broxbourne.foodbank.org.uk', 'items_needed': ['tinned fruit (400gms)', "tea bags (80's)", 'dried pasta (500gms)', 'UHT milk (1 litre)', 'Breakfast Cereals']}, 'Buckfastleigh Foodbank': {'address': '11A Plymouth Rd, Buckfastleigh, Devon TQ11 0DA, UK', 'latitude': '50.48050110071711', 'longitude': '-3.77858298836054', 'website': 'http:\\/\\/buckfastleigh.foodbank.org.uk\\/', 'items_needed': ['tinned fruit (400gms)', "tea bags (80's)", 'dried pasta (500gms)', 'UHT milk (1 litre)', 'Breakfast Cereals']}, 'Burnage Foodbank': {'address': "St Bernard's Church, Burnage Lane, Manchester M19 1DR", 'latitude': '53.4290031', 'longitude': '-2.201912499999935', 'website': 'http:\\/\\/burnage.foodbank.org.uk\\/', 'items_needed': ['Tinned Tomatoes', 'Tinned Fish', 'Tinned Fruit', 'Tinned Rice Pudding', 'Tinned Custard', 'Tinned Potatoes', 'Instant Coffee', 'Long Life Fruit Juice (not Juice Drink)', 'UHT Milk', 'Jam']}, 'Burngreave Foodbank': {'address': '191-199 Spital Hill, Sheffield S4, UK', 'latitude': '53.39199605254642', 'longitude': '-1.458498198178063', 'website': 'http:\\/\\/burngreave.foodbank.org.uk', 'items_needed': ['tinned meat', 'UHT milk (1 litre)', 'dried milk powder', 'long-life fruit juice', 'tinned fish', 'tinned fruit', 'cooking oil', 'tinned tomatoes', 'dried mashed potato or tinned potatoes', 'shower gel/shampoo/deodorant ', "men's razors"]}, 'Caerphilly Foodbank': {'address': 'Connect Life Church Crescent Road  Caerphilly', 'latitude': '51.5739256', 'longitude': '-3.2229692999999315', 'website': 'https:\\/\\/caerphilly.foodbank.org.uk', 'items_needed': ['tinned fruit (400gms)', "tea bags (80's)", 'dried pasta (500gms)', 'UHT milk (1 litre)', 'Breakfast Cereals']}, 'Callington Foodbank': {'address': '1 Launceston Road, Callington, Cornwall PL17 7BS, UK', 'latitude': '50.5050676', 'longitude': '-4.3144536', 'website': 'http:\\/\\/callington.foodbank.org.uk', 'items_needed': ['tinned fruit (400gms)', "tea bags (80's)", 'dried pasta (500gms)', 'UHT milk (1 litre)', 'Breakfast Cereals']}, 'Cambridge City Foodbank': {'address': 'Cambridge CB4 0PP, United Kingdom', 'latitude': '52.23148879999999', 'longitude': '0.1513794999999618', 'website': 'http:\\/\\/cambridgecity.foodbank.org.uk', 'items_needed': ['Tinned Ham', 'Tinned Potatoes  / Mashed potato packets', 'Tinned meals - (chicken in sauce, beef casserole etc)', 'Long-life Juice', 'Cooking Oil - 500 ml preferred (1 litre max)', 'Salt & Pepper - small', 'Instant Coffee and Tea - small jars and packets.', 'Custard', 'Long-life puddings', 'Deoderant']}, 'Camden Foodbank': {'address': 'RCCG City Church  14 Pratt Mews  London  NW1 0AD', 'latitude': '51.5370356', 'longitude': '-0.14076760000000377', 'website': 'http:\\/\\/www.camden.foodbank.org.uk', 'items_needed': ['Tinned Meat (Meat in sauce, Fray Bentos, etc)', 'Tinned Fruit', 'Tinned Vegetables', 'Milk UTH', 'Tins of Fish (Tuna, Sardines,)', 'Shampoo & Shower Gel', 'Washing Powder', 'Toilet Roll', 'Non Caffiene Teas', 'Gluten Free food (pasta, cereal, noodles)']}, 'Cannock &amp; District Foodbank': {'address': 'Pye Green Christian Centre, 521 Pye Green Road, Hednesford, Cannock, Staffordshire, WS12 4LP', 'latitude': '52.7580371602567', 'longitude': '-1.889380162499947', 'website': 'http:\\/\\/cannockdistrict.foodbank.org.uk', 'items_needed': ['Tinned Potatoes', 'UHT Milk', 'Squash', 'Tinned Fish']}, 'Cardiff Foodbank': {'address': 'Forgeside Cl, Cardiff CF24 5FB, UK', 'latitude': '51.477196942463856', 'longitude': '-3.15432849881131', 'website': 'http:\\/\\/cardiff.foodbank.org.uk\\/', 'items_needed': ['Sponge Puddings', 'Tinned Potatoes', 'Long Life Fruit Juice', 'Instant Coffee', 'Breakfast Cereals']}, 'Cardigan Foodbank': {'address': 'New Life Christian Centre Quay Street Cardigan Ceredigion SA43 1HU', 'latitude': '52.0819789', 'longitude': '-4.6619237', 'website': 'http:\\/\\/cardigan.foodbank.org.uk', 'items_needed': ['Tinned veg. (peas, carrots, sweetcorn)', 'Tinned potatoes (large and small tins)', 'Long-life milk', 'Long-life juice', 'Squash 1ltr. (orange, apple and blackcurrant, ribena or similar)', 'Cereal bars', 'Chocolate bars ( kit-kat and similar)', 'Christmas fare and treats', 'Jellies and instant whips', 'Dog and cat food', 'Toilet rolls', 'Washing powder or tablets', 'Washing up liquid', 'Shampoo', 'Deodorants (particularly mens)']}, 'Carmarthen Foodbank': {'address': 'Unnamed Road, Johnstown, Carmarthen SA31 3BP, UK', 'latitude': '51.84813147279108', 'longitude': '-4.322228773680081', 'website': 'http:\\/\\/carmarthen.foodbank.org.uk\\/', 'items_needed': ['Tinned tomatoes', 'Tinned fruit', 'Coffee', 'Long-life fruit juice', 'Long-life milk']}, 'Carrickfergus Foodbank': {'address': '75 Woodburn Road, Carrickfergus, Co Antrim, BT38 8PS', 'latitude': '54.722641', 'longitude': '-5.8364522', 'website': 'http:\\/\\/carrickfergus.foodbank.org.uk\\/', 'items_needed': ['Tinned fruit (400gms)', 'Coffee', 'Rice Pudding & Custard', 'UHT milk (1 litre)', 'Tinned Meats']}, 'Caterham Foodbank': {'address': '4 Beechwood Road, Caterham, Surrey CR3, UK', 'latitude': '51.2878805', 'longitude': '-0.07695730000000367', 'website': 'http:\\/\\/caterham.foodbank.org.uk\\/', 'items_needed': ['Sponge puddings', 'Tinned rice pudding', 'Small 500g bags of rice', 'Deodorant', 'Chocolate']}, 'Causeway Foodbank': {'address': "Hillman's Way, Coleraine BT52 2ED, United Kingdom", 'latitude': '55.1331224', 'longitude': '-6.6589334000000235', 'website': 'http:\\/\\/causeway.foodbank.org.uk\\/', 'items_needed': ['tinned fruit (400gms)', "tea bags (80's)", 'dried pasta (500gms)', 'UHT milk (1 litre)', 'Breakfast Cereals']}, 'Chalk Farm Foodbank': {'address': 'Revelation Church, London, United Kingdom', 'latitude': '51.5413141', 'longitude': '-0.15645779999999831', 'website': 'http:\\/\\/chalkfarm.foodbank.org.uk', 'items_needed': ['Detergent', 'Coffee', 'Tinned Meat', 'Chopped Tomatoes', 'Tinned Fruit', 'Nappies 5&6', 'Tinned Fish', 'Tinned Veg (no pluses or beans)']}, 'Cheadle and District Foodbank': {'address': 'Guild Hall, Tape street, Cheadle, ST10 1BG', 'latitude': '52.98727', 'longitude': '-1.9865821', 'website': 'http:\\/\\/cheadledistrict.foodbank.org.uk\\/', 'items_needed': ['small bags of sugar', 'jars of coffee', 'tinned potatoes', 'bottles of fruit squash', 'mens deodorant', 'toothpaste', 'tinned sponge puddings']}, 'Cheddar Valley Foodbank': {'address': 'Tweentown, Cheddar, United Kingdom', 'latitude': '51.27943', 'longitude': '-2.7746779999999944', 'website': 'https:\\/\\/cheddarvalley.foodbank.org.uk', 'items_needed': ['Sponge puddings', 'Juice', 'Jam', 'Pasta sauces', 'Milk (Long Life)', 'Ketchup', 'Tinned spaghetti', 'Feminine products', 'Fairy liquid', 'Shower gel', 'Toilet rolls', 'Washing powder']}, 'Chelmsford Foodbank': {'address': 'Chelmsford, United Kingdom', 'latitude': '51.7355868', 'longitude': '0.4685497000000396', 'website': 'http:\\/\\/chelmsford.foodbank.org.uk', 'items_needed': ['Instant Mashed Potatoes', 'Instant Coffee', 'Long Life Fruit Juice', 'Custard (packets or tins)']}, 'Cheltenham Foodbank': {'address': "Elim Christian Centre Offices, 115 - 117 Saint George's Road, Cheltenham GL50 3EG, UK", 'latitude': '51.9010612', 'longitude': '-2.0858435999999756', 'website': 'http:\\/\\/cheltenham.foodbank.org.uk', 'items_needed': ['Smash', 'Fruit Juice', 'Washing up Liquid', "Men's Toiletries", 'Long Life Milk', 'Jam', 'Noodles']}, 'Chepstow Foodbank': {'address': 'The Bridge Church  Unit 1a Critchcraft Buildings Bulwark Industrial Estate Bulwark Chepstow NP16 5QZ', 'latitude': '51.6324244', 'longitude': '-2.672354', 'website': 'http:\\/\\/chepstow.foodbank.org.uk', 'items_needed': ['UHT Milk and Fruit Juice', 'Coffee', 'Christmas food items ', 'Tinned Fruit', 'Loo Rolls', 'Washing up liquid']}, 'Chesterfield Foodbank': {'address': 'Carrwood Rd, Chesterfield S41 9QB, UK', 'latitude': '53.27653587362258', 'longitude': '-1.4627156690643233', 'website': 'http:\\/\\/chesterfield.foodbank.org.uk\\/', 'items_needed': ['Long Life Milk', 'Long Life Juice', 'Deodorants', 'Shampoo', 'Coffeee', 'Tinned Meat']}, 'Chichester District Foodbank': {'address': '78 Orchard St, Chichester, West Sussex PO19 1DE, UK', 'latitude': '50.83879201857543', 'longitude': '-0.7836632747298609', 'website': 'http:\\/\\/chichesterdistrict.foodbank.org.uk', 'items_needed': ['Tinned Potatoes', 'Tinned Fruit', 'Tinned Vegetables (not pulses)', 'Tin Openers', 'Sponge Puddings', 'Jam/spreads', 'Rice pudding/custard']}, 'Chiltern Foodbank': {'address': '71 Broadway, Chesham, Bucks, HP5 1BX', 'latitude': '51.7060772', 'longitude': '-0.6119148', 'website': 'http:\\/\\/chiltern.foodbank.org.uk', 'items_needed': ['Small Washing Powder', 'Sponge Pudding', 'Powdered milk', 'Long life full cream milk', 'Instant Mash potato', 'Ketchup', 'Tinned sardines / salmon', 'Custard Powder', 'Packet Chicken Noodle Soup', 'Cuppa Soup', 'Chocolate biscuits', 'Cake / Cookie mix', 'UHT Fruit Juice', 'Tinned Macaroni Cheese', 'Tinned Mince', 'Tinned Ham', 'Small Packet Sugar']}, 'Chipping Barnet Foodbank': {'address': '63 Somerset Rd, New Barnet, Barnet EN5 1JD, UK', 'latitude': '51.6479684', 'longitude': '-0.17627730000003794', 'website': 'http:\\/\\/chippingbarnet.foodbank.org.uk', 'items_needed': ['Tinned Meat', 'Coffee', 'Toiletries', 'Female Hygiene Products']}, 'Chorlton &amp; Didsbury Foodbank': {'address': 'Manchester, Manchester M20 2ZD, UK', 'latitude': '53.4227308', 'longitude': '-2.2558486', 'website': 'http:\\/\\/chorltondidsbury.foodbank.org.uk\\/', 'items_needed': ['tinned veg, meat', 'tinned fruit, rice pudding; custard;', 'instant mash', 'long life fruit juice', 'UHT milk; powdered milk', 'cereals; biscuits', "small jars of coffee; tea bags (40's and 80's)", 'tinned potatoes', 'sponge puddings']}, 'Cirencester Foodbank': {'address': 'Cirencester Ashcroft Church Ashcroft Road Circencester Gl7 1RA', 'latitude': '51.7149975', 'longitude': '-1.9678917', 'website': 'http:\\/\\/cirencester.foodbank.org.uk', 'items_needed': ['Tinned soup', 'Long-life milk', 'Tinned vegetables', 'Biscuits', 'Instant mash/tinned potatoes', 'Rice pudding', 'Long-life sponge pudding', 'Long-life juice', 'Tinned fruit', 'Tinned tomatoes', 'Teabags (40s/80s)']}, 'Clacton Foodbank': {'address': '103 Old Road, Clacton-on-Sea, Essex CO15 1HN, UK', 'latitude': '51.7920925', 'longitude': '1.1481887', 'website': 'http:\\/\\/clacton.foodbank.org.uk\\/', 'items_needed': ['tinned fruit', 'tinned & packet custard', 'jars of pasta sauce', 'tinned tomatoes', 'tinned spaghetti', 'tinned sponge puddings', 'small jar/packet instant coffee', 'hot chocolate powder']}, 'Clapham Park Foodbank': {'address': 'All Nations Baptist Church The Bonneville Centre, 12 Poynders Road Clapham Park SW4 8NY', 'latitude': '51.4503519', 'longitude': '-0.14089639999997416', 'website': 'http:\\/\\/claphampark.foodbank.org.uk', 'items_needed': ['Breakfast cereal', 'tinned meat eg corned beef', 'rice or sponge pudding', 'longlife fruit juice', 'tinned fish', 'basic toiletries eg shampoo, soap and toothpaste', 'toilet tissue', 'UHT milk (1 litre)', 'Pasta Sauce']}, 'Clay Cross Foodbank': {'address': 'Community of Christ Thanet Street CLAY CROSS S45 9JS', 'latitude': '53.1634692', 'longitude': '-1.4134055', 'website': 'http:\\/\\/claycross.foodbank.org.uk', 'items_needed': ['Powdered Milk', 'Chocolate/treats', 'Cereal', 'Instant Mash']}, 'Clevedon District Foodbank': {'address': 'Salvation Army Church, Old Street, Clevedon BS21, United Kingdom', 'latitude': '51.43667610000001', 'longitude': '-2.8498259000000417', 'website': 'http:\\/\\/clevedondistrict.foodbank.org.uk', 'error': 'No items found'}, 'Clifton NG11 Foodbank': {'address': '14 Southchurch Dr, Clifton, Nottingham NG11 8AQ, UK', 'latitude': '52.9111316842564', 'longitude': '-1.1700224876403808', 'website': 'http:\\/\\/cliftonng11.foodbank.org.uk', 'items_needed': ['Custard', 'Pasta Sauce', 'Carrier bags', 'Instant mashed potato', 'UHT milk']}, 'Clyde, Avon &amp; Nethan Foodbank': {'address': '96 Union St, Larkhall, South Lanarkshire ML9 1EF, UK', 'latitude': '55.73914869999999', 'longitude': '-3.9734410999999454', 'website': 'http:\\/\\/clydeavonnethan.foodbank.org.uk\\/', 'items_needed': ['Longlife Breakfast Juice', 'tinned  vegetables', 'Longlife (UHT) milk (1 litre)']}, 'Coalville Foodbank': {'address': '23 Margaret St, Coalville, Leicestershire LE67 3LY, UK', 'latitude': '52.72416121669717', 'longitude': '-1.3759691950371007', 'website': 'http:\\/\\/coalville.foodbank.org.uk', 'items_needed': ['Chocolate bars e.g. kitkats, penguines', 'Long Life Juice', 'Instant Coffee', 'UHT milk (1 litre)', 'Jam', 'Tinned Rice Pudding']}, 'Cobham Area': {'address': 'Church Gate House, Downside Bridge Road, Cobham, UK', 'latitude': '51.32566519999999', 'longitude': '-0.41118759999994836', 'website': 'https:\\/\\/cobhamarea.foodbank.org.uk\\/', 'items_needed': ['Pasta sauce in jars', 'Rice (500g packs please)', 'Microwave rice in sachets', 'UHT long life fruit juice or squash', 'Deodorant (for men & women)', 'Sanitary pads', 'Disposable razors', 'Shaving foam']}, 'Colchester Foodbank': {'address': 'Colchester FoodBank, Moorside, Colchester, United Kingdom', 'latitude': '51.8891825', 'longitude': '0.9170584999999392', 'website': 'http:\\/\\/colchester.foodbank.org.uk\\/', 'items_needed': ['SMALL BAGS OF RICE', 'LONGLIFE MILK', 'LONGLIFE JUICE', 'SHAMPOO', 'CARRIER BAGS/ REUSEABLE BAGS', 'SQUASH', 'TINNED FRUIT', 'DEODORANTS', 'TINNED POTATOES', 'TINNED PUDDINGS', 'TINS OR PACKETS OF CUSTARD', 'JAM', 'PEANUT BUTTER', 'TOOTH BRUSH/ TOOTH PASTE', 'RAZORS', 'SHOWER GEL', 'SMALL JARS OF COFFEE', 'SMALL WASHING POWDER/LIQUID', 'SMALL MULTIPACK SNACKS (penguin/club/twix)', 'TINNED TOMATOES']}, 'Colindale Foodbank': {'address': '5 Avion Cres, London NW9, UK', 'latitude': '51.60148117636448', 'longitude': '-0.23877368280341216', 'website': 'http:\\/\\/colindale.foodbank.org.uk', 'items_needed': ['None', 'Tinned Soup', 'Tinned Fruit', 'Tinned Vegetables', 'Tinned Fish', 'Pasta Sauce', 'Rice Pudding', 'Rice', 'None', 'Milk', 'Coffee', 'Tea Bags', 'Juice', 'Biscuits', 'Cooking Oil', '\xa0', 'Non Food Items', 'Toilet Rolls', 'Shower Gel', 'Deodorant', 'Shampoo', 'None', 'Wipes', 'Sanitary Towels', 'Washing Powder', 'Washing Up Liquid', 'Toilet Paper', 'Toothbrush', 'Toothpaste']}, 'Collier Row & Romford Foodbank': {'address': 'Market Place, Romford RM1 3AB, United Kingdom', 'latitude': '51.5800606', 'longitude': '0.18230470000003152', 'website': 'http:\\/\\/collierrowromford.foodbank.org.uk', 'items_needed': ['Tinned Fruit/Custard', 'Long life milk', 'Long life fruit juice', 'Instant coffee', 'Tomato ketchup', 'Pasta sauce', 'Tinned spaghetti']}, 'Corby Foodbank': {'address': 'St Peter’s and St Andrew’s Church, Beanfield Ave, Corby, NN18 0EH', 'latitude': '52.4862560979606', 'longitude': '-0.7206344604492188', 'website': 'http:\\/\\/corby.foodbank.org.uk', 'items_needed': ['Tinned Meat', 'UHT Milk']}, 'Coventry Foodbank': {'address': 'CV3 2NT', 'latitude': '52.3941458', 'longitude': '-1.4374387000000297', 'website': 'http:\\/\\/coventry.foodbank.org.uk\\/', 'items_needed': ['Tinned Fish', 'Tinned Meat', 'Rice', 'Rice pudding', 'Long life milk (UHT)', 'Tinned fruit', 'Long life juice', 'Squash', 'Toiletries']}, 'Craigavon Area Foodbank': {'address': '19 Carn Rd, Portadown, Craigavon BT63 5WG, UK', 'latitude': '54.45371566922337', 'longitude': '-6.413689431213356', 'website': 'http:\\/\\/craigavonarea.foodbank.org.uk', 'items_needed': ['tinned fruit (400gms)', 'tinned vegetables - (not baked beans or tinned soup)', 'tinned meat', 'UHT milk (1 litre)', 'tinned tomatoes']}, 'Cramlington Foodbank': {'address': 'Forum Way, Cramlington NE23 6YD, UK', 'latitude': '55.08437738528348', 'longitude': '-1.5909836170577591', 'website': 'https:\\/\\/cramlington.foodbank.org.uk', 'items_needed': ['tins of meat', 'tins of tuna', 'tins of vegetables', 'tins of fruit', 'bottles of squash', 'long life milk', 'coffee, tea & sugar', 'breakfast cereals', 'tomato sauce & brown sauce', 'toothbrushes & toothpaste', 'soap, shampoo & shower gel', 'toilet rolls']}, 'Cromer &amp; District Foodbank': {'address': '21 West St, Cromer, Norfolk NR27 9DT, UK', 'latitude': '52.930105611695446', 'longitude': '1.295204109786937', 'website': 'http:\\/\\/cromerdistrict.foodbank.org.uk\\/', 'items_needed': ['Fruit Juice', 'Tinned meat', 'Tinned salmon', 'Tinned fruit', 'Long life milk - semi skimmed or full fat', 'Tinned potatoes', 'Jam', 'Sponge puddings', 'Custard', 'Squash', 'Boxes of biscuits', 'Chocolate treats', 'Crisps, nuts etc', 'Christmas crackers', 'Mince pies - no alcohol', 'Christmas cake - no alcohol', 'Christmas puddings - no alcohol', 'Sugar', 'Washing powder/liquid - non bio', 'Toilet rolls']}, 'Crowborough Foodbank': {'address': 'United Church, Croft Road CROWBOROUGH East Sussex TN6 1HA', 'latitude': '51.0534805', 'longitude': '0.1606932', 'website': 'http:\\/\\/crowborough.foodbank.org.uk\\/', 'items_needed': ['Almost all food on our', 'Shopping List']}, 'Crowthorne Foodbank': {'address': "Vineyard Church Centre 25 Wellington Business Park Duke's Ride Crowthorne RG45 6LS", 'latitude': '51.366104', 'longitude': '-0.8173930000000382', 'website': 'http:\\/\\/crowthorne.foodbank.org.uk\\/', 'items_needed': ['Tinned Ham', 'Tinned Tomatoes', 'Tinned Potatoes', 'Christmas Crackers', 'Christmas Treats']}, 'Croydon Foodbank': {'address': 'Unit 5 46 Pilton Estate  Pitlake Croydon CR0 3RA', 'latitude': '51.3770994', 'longitude': '-0.107296', 'website': 'http:\\/\\/croydon.foodbank.org.uk', 'items_needed': ['Tinned Fruit (400gms)', 'Pasta Sauce', 'Tinned Fish', 'Tinned Meat', 'UHT Milk (1 Litre) ', 'Corned Beef', 'Sweet Corn ']}, 'Cumbernauld Foodbank': {'address': "Saint Mungo's Road, Cumbernauld, Glasgow G67 1QR, UK", 'latitude': '55.94674519001551', 'longitude': '-3.991349717652156', 'website': 'https:\\/\\/cumbernauld.foodbank.org.uk', 'items_needed': ['tinned fruit (400gms)', "tea bags (80's)", 'dried pasta (500gms)', 'UHT milk (1 litre)', 'Breakfast Cereals']}, 'Cupar Foodbank': {'address': '21 St Catherine Street Cupar Fife KY15 4TA', 'latitude': '56.3193225', 'longitude': '-3.0097716', 'website': 'http:\\/\\/cupar.foodbank.org.uk\\/', 'items_needed': ['Long life fruit juice/ diluting juice', 'Large/ small jars coffee and boxes of tea', 'Tinned - spagetti/ravioli/ bolognaise/ macaroni cheese/beans', 'Tins meatballs/Chilli Con Carne', 'Full fat UHT milk', 'Tinned potatoes', 'Hot chocolate', 'Jar pasta sauce', 'Rice', 'Jar Curry/ sweet and sour sauce', 'Tins tuna', 'Tinned ham', 'Fray Bentos Pies', 'Tins hotdogs', 'Chicken in white sauce', 'Tins pears/peaches/mandarins/pineapple', 'Tins cold meats', 'Tinned sausages with beans', 'Tins fruit cocktail', 'Large bag or multi pack Crisps/ savoury treats', 'Tins custard/rice pudding', 'Tins long life sponge pudding', 'Sweets', 'Box Shortbread', 'Tin of biscuits', 'Box Mince Pies', 'Jam/marmalade', 'Toilet Roll', 'Soap', 'Washing-up liquid', 'Heavy duty shopping bags', 'Toiletries', 'Pasta', 'Long life fruit juice', 'Diluting juices']}, 'Dacorum Foodbank': {'address': 'Paradise, Paradise Industrial Estate, Hemel Hempstead, Hertfordshire HP2 4TF, UK', 'latitude': '51.7496145', 'longitude': '-0.4685114', 'website': 'http:\\/\\/www.dacorum.foodbank.org.uk', 'items_needed': ['Milk (UHT or powdered)', 'Fruit juice (1L long life)', 'Sponge Puddings', 'Peas (Tinned)', 'Potatoes (Tinned or Smash)', 'Vegetables (Tinned)', 'Meat (Tinned)', 'Custard', 'Jams and Spreads', 'Chocolate', 'Cereal Bars', '10p carrier bags for food parcels', 'Washing up liquid', 'Cleaning sprays', 'Liquid hand soap', 'A4 white copy paper', 'Black permanent marker pens', 'Sellotape', 'Mens socks']}, 'Dagenham Foodbank': {'address': 'House Of Faith Connections, 104 New Road, Dagenham  Essex  RM9 6PE', 'latitude': '51.5289255', 'longitude': '0.1546707', 'website': 'http:\\/\\/dagenham.foodbank.org.uk', 'items_needed': ['Tinned Meat/Fish', 'Tinned Fruit', 'Tinned Vegetables', 'Fruit Juices', 'UHT milk (1 litre)', 'Nappies', 'Carrier bags']}, 'Deal Area Foodbank': {'address': 'Unit C4, Enterprise Trading Estate, Western Road, Deal, CT14 6PJ', 'latitude': '51.2271305', 'longitude': '1.3977873', 'website': 'https:\\/\\/dealarea.foodbank.org.uk', 'items_needed': ['Tinned vegetables & fruit', 'Instant mash', 'Cuppa soup', 'Custard', 'Instant desserts & rice pudding', 'Shampoo']}, 'Deepings Foodbank': {'address': 'The Deepings SchoolPark Rd.,Deeping St JamesLincolnshirePE6 8NF', 'latitude': '52.6739641', 'longitude': '-0.2987019', 'website': 'http:\\/\\/deepings.foodbank.org.uk\\/', 'items_needed': ['tinned fruit (400gms)', "tea bags (80's)", 'dried pasta (500gms)', 'UHT milk (1 litre)', 'Breakfast Cereals']}, 'Devizes & District Foodbank': {'address': '1 New Park Rd, Devizes SN10, UK', 'latitude': '51.35437997445155', 'longitude': '-1.9929081201553345', 'website': 'http:\\/\\/devizesdistrict.foodbank.org.uk', 'items_needed': ['Tinned potatoes', 'Tinned tomatoes', 'Tinned rice pudding', 'Tea bags (80s)', 'Biscuits', 'Long life fruit juice', 'Tinned/long life sponge puddings', 'Rice', 'Tinned/packet custard', 'Biscuits bars e.g. Kit Kats / Penguin', 'Long life milk', 'Chocolate', 'Tinned hot meat (e.g. stewed steak, chicken casserole, beef stew etc)', 'Tinned ham', 'Tinned meat pies', 'Tinned carrots', 'Tinned broad beans', 'Toothpaste', 'Shower gel', 'Packet super noodles', 'Packet mug shots', 'Packet pasta in sauce', 'Pasta Sauce', 'Tinned sweetcorn']}, 'Doncaster Foodbank': {'address': 'Reachout at Christ Church, Thorne Road, Doncaster, DN1 2HG', 'latitude': '53.5233843', 'longitude': '-1.1268782', 'website': 'http:\\/\\/doncaster.foodbank.org.uk\\/', 'items_needed': ['Tinned fruit', 'UHT milk', 'Tinned meat', 'Long life fruit juice', 'Tinned Rice pudding']}, 'Dorking Area Foodbank': {'address': '1 Church St, Dorking RH4 1DS, UK', 'latitude': '51.23255967139531', 'longitude': '-0.3326236097175297', 'website': 'http:\\/\\/dorkingarea.foodbank.org.uk\\/', 'items_needed': ['Toilet rolls', 'Tins of meat', 'Cereal', 'Washing-up liquid', 'Instant mashed potato']}, 'Dover Foodbank': {'address': 'Dover Baptist Church, 27-32 Maison Dieu Road, Dover, Kent CT16 1RF, UK', 'latitude': '51.1299705', 'longitude': '1.3098614', 'website': 'http:\\/\\/dover.foodbank.org.uk\\/', 'items_needed': ['Meat / Fish - tinned', 'Biscuits', 'Rice pudding / Custard', 'Sponge puddings', 'Potatoes - tinned / instant', 'Fruit - tinned', 'Toilet rolls', 'Washing up liquid', 'Shampoo / Shower gel / Soap', 'Can openers']}, 'Droitwich Spa Foodbank': {'address': 'Droitwich Baptist Church Ombersley Street East WR9 8QS', 'latitude': '52.2673474', 'longitude': '-2.1523529999999482', 'website': 'http:\\/\\/droitwichspa.foodbank.org.uk\\/', 'items_needed': ['Long life fruit juice and milk', 'Tinned meat and fish', 'Tinned fruit', 'Instant mash and cuppa soup', 'Breakfast cereal', 'Tinned sponge pudding and custard', 'Cat Food', 'Deoderants', 'Christmas Treats eg selection packs, biscuits and toiletries', 'Christmas Treats, eg tinned ham, pudding and mince pies']}, 'Droylsden and District': {'address': 'Church Street, Droylsden, Manchester M43 7BR, UK', 'latitude': '53.48005', 'longitude': '-2.1441031', 'website': 'http:\\/\\/droylsdendistrict.foodbank.org.uk\\/', 'items_needed': ['tinned fruit (400gms)', "tea bags (80's)", 'dried pasta (500gms)', 'UHT milk (1 litre)', 'Breakfast Cereals']}, 'Dumfriesshire Foodbank': {'address': 'Apex Scotland, 77-79 Friars Vennel, Dumfries DG1 2RF, United Kingdom', 'latitude': '55.0696489', 'longitude': '-3.612844799999948', 'website': 'http:\\/\\/dumfriesshire.foodbank.org.uk\\/', 'items_needed': ['Tins of Meat', 'Cereal', 'Pasta and Pasta Sauce', 'Small packs of Pasta', 'Small packs of biscuits', 'Toiletries']}, 'Dundee Foodbank': {'address': '6 Dunsinane Ave, Dundee DD2 3QN, UK', 'latitude': '56.48041655174221', 'longitude': '-3.0172519435470804', 'website': 'http:\\/\\/dundee.foodbank.org.uk', 'items_needed': ['Tinned fruit', 'Tinned puddings (e.g. rice pudding/custard/sponge puddings)', 'Tinned meat (e.g. spam, ham, corned beef)', 'Tinned fish (e.g. tuna/sardines)', 'Tinned vegetables', 'Tinned ready meals (e.g. minced beef, macaroni)', 'UHT milk (1 litre)', 'Coffee/Tea', 'Nappies (especially sizes 4 and 5)', 'Toiletries (especially soap, shampoo, deodorant, toothbrushes and toothpaste)']}, 'Dundonald Foodbank': {'address': '971 Upper Newtownards Road, Dundonald, Down, BT16 1RL', 'latitude': '54.5943821', 'longitude': '-5.8057321', 'website': 'http:\\/\\/dundonald.foodbank.org.uk\\/', 'items_needed': ['tinned fruit (400gms)', "tea bags (80's)", 'dried pasta (500gms)', 'UHT milk (1 litre)', 'Breakfast Cereals']}, 'Dunfermline Foodbank': {'address': 'Liberty Centre, Pitreavie Way, Pitreavie Business Park, Dunfermline, Fife KY11 8QS, UK ', 'latitude': '56.0556663', 'longitude': '-3.4426277000000027', 'website': 'http:\\/\\/dunfermline.foodbank.org.uk', 'items_needed': ['Sugar (500g)', 'Cleaning - Washing Up Liquid', 'Tinned Rice Pudding', 'Instant Mash', 'Long-Life Juice', 'Milk - Powdered', 'Sponge Pudding', 'Sauces - Ketchup & Brown', 'Coffee', 'Cheesy Pasta', 'Shaving Foam', 'Razors', 'Washing-Up Liquid']}, 'Dunstable Foodbank': {'address': 'New Life Church Dunstable 80a Houghton Road Dunstable Bedfordshire LU5 5AD', 'latitude': '51.8953377', 'longitude': '-0.5301251', 'website': 'http:\\/\\/dunstable.foodbank.org.uk', 'items_needed': ['Sponge puddings (Long Life or Tinned)', 'Cake (bars)', 'Fruit squash (small bottles)', 'Rice pudding (tinned)', 'Tinned meat dishes (stew, chilli, mince)', 'Sugar (500g)', 'Coffee (instant)', 'Savoury treats', 'Fish (tinned)', 'Soup (tinned or pack)', 'Jam', 'Custard', 'Carrots (tinned)', 'Fruit (tinned)', 'Tinned Solid Meat (corned beef, ham, etc)', 'Potatoes (tinned)', 'Rice (microwaveable)', 'Sweet treats (chocolate)', 'Fruit juice (long life)', 'Tomatoes (tinned)', 'Milk (long life)', 'Mashed potato (instant)']}, 'Durham Foodbank': {'address': '1 Bridge End, Chester le Street, DH3 3RA', 'latitude': '54.8591968', 'longitude': '-1.5738496999999825', 'website': 'http:\\/\\/durham.foodbank.org.uk', 'items_needed': ['Tinned fruit', 'Tinned tomatoes', 'Tinned fish', 'Sugar', 'Jam']}, 'Ealing Foodbank': {'address': '1 Church Rd, London W7 3BA, UK', 'latitude': '51.50935963369629', 'longitude': '-0.3349439884216281', 'website': 'http:\\/\\/ealing.foodbank.org.uk\\/', 'items_needed': ['Dried Milk', 'tinned meat - all types', 'Potatoes - Tinned and Instant', 'Long Life Sponge Puddings', 'Savoury biscuits', 'Deodorant - male and female', 'Shaving Foam & Razors', 'Washing-up Liquid', 'Nappies - size 4 & 6']}, 'East & West Nottingham Foodbank': {'address': 'Hope House & Boundary Community Centre, Boundary Road, Beeston, Nottingham NG9 2RF', 'latitude': '52.9355109', 'longitude': '-1.2153187', 'website': 'http:\\/\\/www.hope-nottingham.org.uk\\/', 'error': 'Bad status code'}, 'East Bristol Foodbank': {'address': '32 Stapleton Road Easton, Bristol, BS5 0QY', 'latitude': '51.4597168', 'longitude': '-2.5757641', 'website': 'http:\\/\\/eastbristol.foodbank.org.uk', 'items_needed': ['Tinned Vegetarian Meals', 'Jam', 'Toothpaste', 'Custard', 'Shampoo']}, 'East Dunbartonshire Foodbank': {'address': '52 Townhead, Kirkintilloch, Glasgow, G66 1NL', 'latitude': '55.9376102', 'longitude': '-4.1544265', 'website': 'http:\\/\\/eastdunbartonshire.foodbank.org.uk\\/', 'items_needed': ['Tinned Ham', 'Tinned Chicken', 'Tinned Fray Bentos Pies', 'Tinned Potatoes', 'Tinned Fruit']}, 'East Elmbridge Foodbank': {'address': 'Esher Green Baptist Church, Esher, United Kingdom', 'latitude': '51.369431', 'longitude': '-0.36675590000004376', 'website': 'http:\\/\\/eastelmbridge.foodbank.org.uk\\/', 'items_needed': ['Long life milk / juice', 'Tinned meat / fish', 'Tinned vegetables (not pulses)', 'Tinned tomatoes', 'Pasta sauces', 'Instant packets, noodles, etc', 'Fruit, custard, rice pudding', 'Biscuits / snacks', 'Pet food', 'Toiletries / toothpaste', 'Laundry items', 'Household cleaning products']}, 'East Grinstead Foodbank': {'address': 'Jubilee Community Centre, Charlwoods Road, East Grinstead, West Sussex, RH19 2HL', 'latitude': '51.1337424', 'longitude': '-0.0145499', 'website': 'http:\\/\\/eastgrinstead.foodbank.org.uk', 'items_needed': ['Washing powder / liquid - small packets only please', 'Rice pudding', 'Toothbrushes', 'Handsoap', 'Deodorant', 'Longlife fruit juice (1L)', 'Tinned carrots', 'Small packets of tissues', 'Surface cleaner', 'Tinned tuna', 'Washing up liquid']}, 'East Lothian Foodbank': {'address': '3 Civic Square, Tranent, East Lothian EH33 1LH, UK', 'latitude': '55.9442926', 'longitude': '-2.9539721', 'website': 'http:\\/\\/eastlothian.foodbank.org.uk\\/', 'items_needed': ['Tinned veg including tinned potato', 'Tinned meat and fish', 'Tinned fruit', 'Long-life fruit juice', 'Rice', 'Jam', 'Rice pudding']}, 'East Renfrewshire Foodbank': {'address': 'Barrhead, Glasgow, East Renfrewshire G78 2RB, UK', 'latitude': '55.8001883', 'longitude': '-4.3891816', 'website': '', 'error': 'No website given by master list'}, 'East Yorkshire Foodbank': {'address': 'Mill Lane, Beverley HU17 9DH, UK', 'latitude': '53.8455599', 'longitude': '-0.42428480000000945', 'website': 'http:\\/\\/eastyorkshire.foodbank.org.uk\\/', 'items_needed': ['Tinned Fruit', 'Tinned Tomatoes', 'Tinned Meat', 'UHT milk (1 litre)', 'Biscuits', 'Tinned Fish', 'Tea and Coffee', 'Long Life Fruit Juice']}, 'Eastbourne Foodbank': {'address': 'Unit 3, 55 Brampton Road, Eastbourne, BN22 9AF', 'latitude': '50.7924952', 'longitude': '0.28291999999999007', 'website': 'http:\\/\\/eastbourne.foodbank.org.uk', 'items_needed': ['UHT Milk', 'Tinned meat', 'Tinned fruit', 'Tinned cold meat - ham etc', 'Deodorant', 'Shampoo', 'Tinned Rice pudding']}, 'Eastern Valley Foodbank': {'address': 'Hope Centre, Unit 5 Pavillion Industrial Estate, Pontnewynydd, Pontypool NP4 6NF', 'latitude': '51.7102849', 'longitude': '-3.0515783', 'website': 'http:\\/\\/easternvalley.foodbank.org.uk', 'items_needed': ['tinned fruit (400gms)', 'tinned soup', 'rice pudding', 'UHT milk (1 litre)', 'tinned meat', 'tinned vegetables']}, 'Edinburgh Central Foodbank': {'address': '12 New Lairdship Yards, Edinburgh, City of Edinburgh EH11 3UY, UK', 'latitude': '55.9264167', 'longitude': '-3.28272', 'website': 'http:\\/\\/edinburghnw.foodbank.org.uk\\/', 'items_needed': ['Spaghetti in Sauce (tin)', 'Vegetables (tinned)', 'Biscuits', 'Chocolate/sweets', 'Cold meat (tin e.g. corned beef)', 'Custard (Tinned)', 'Deoderant (male and female)', 'Fruit juice (long life)', 'Household cleaning products', 'Jam', 'Potatoes (tin)', 'Rice pudding (tin)', 'Shampoo', 'Sugar']}, 'Edinburgh East Foodbank': {'address': 'New Lairdship Yards, Edinburgh EH11 3UY, United Kingdom', 'latitude': '55.92683309999999', 'longitude': '-3.2826404999999568', 'website': 'https:\\/\\/edinburghnw.foodbank.org.uk\\/', 'items_needed': ['Spaghetti in Sauce (tin)', 'Vegetables (tinned)', 'Biscuits', 'Chocolate/sweets', 'Cold meat (tin e.g. corned beef)', 'Custard (Tinned)', 'Deoderant (male and female)', 'Fruit juice (long life)', 'Household cleaning products', 'Jam', 'Potatoes (tin)', 'Rice pudding (tin)', 'Shampoo', 'Sugar']}, 'Edinburgh NE Foodbank': {'address': 'South Leith Parish Church Halls, 6 Henderson Street, Edinburgh, EH6 6BS', 'latitude': '55.9720206', 'longitude': '-3.1726941', 'website': 'http:\\/\\/edinburghne.foodbank.org.uk\\/', 'items_needed': ['Tinned Rice Pudding', 'Custard', 'Tinned Steam Puddings']}, 'Edinburgh North West Foodbank': {'address': 'Unit 12 New Lairdship Yards EDINBURGH EH11 3U', 'latitude': '55.9264167', 'longitude': '-3.2827200000000403', 'website': 'http:\\/\\/edinburghnw.foodbank.org.uk', 'items_needed': ['Spaghetti in Sauce (tin)', 'Vegetables (tinned)', 'Biscuits', 'Chocolate/sweets', 'Cold meat (tin e.g. corned beef)', 'Custard (Tinned)', 'Deoderant (male and female)', 'Fruit juice (long life)', 'Household cleaning products', 'Jam', 'Potatoes (tin)', 'Rice pudding (tin)', 'Shampoo', 'Sugar']}, 'Edinburgh SE Foodbank': {'address': '47 Southhouse Broadway, Edinburgh EH17 8AS, UK', 'latitude': '55.8984228', 'longitude': '-3.1578087000000323', 'website': 'http:\\/\\/edinburghse.foodbank.org.uk\\/', 'items_needed': ['Sponge Puddings', 'Rice', 'dried', 'UHT milk (1 litre)', 'Breakfast Cereals']}, 'Edinburgh SW Foodbank': {'address': '431 Gorgie Road, Edinburgh, City of Edinburgh EH11 2RT, UK', 'latitude': '55.9337902', 'longitude': '-3.2447565', 'website': '', 'error': 'No website given by master list'}, 'Ely Foodbank': {'address': '10 Chapel St, Ely CB6 1AD, UK', 'latitude': '52.40096333619655', 'longitude': '0.2621154486877231', 'website': 'http:\\/\\/elyfoodbank.org.uk', 'error': 'Bad status code'}, 'Enniskillen Foodbank': {'address': 'The Lakes Vineyard Church 6–8 Cross Street Enniskillen BT74 7DX', 'latitude': '54.34543679999999', 'longitude': '-7.638668400000029', 'website': 'http:\\/\\/enniskillen.foodbank.org.uk\\/', 'items_needed': ['tinned vegetables', 'tinned fruit', 'Easy Cook Rice 1KG', 'UHT milk (1 litre)']}, 'Epping Forest Foodbank': {'address': 'Epping Forest Foodbank  Unit-D8 Loughton Seedbed Centre Langston Road Loughton Essex IG10 3TQ', 'latitude': '51.6459517', 'longitude': '0.08953569999994215', 'website': 'http:\\/\\/eppingforest.foodbank.org.uk\\/', 'items_needed': ['Tinned Tomatoes', 'UHT Milk', 'Tinned Ham', 'Long life juice', 'Sponge Pudding', 'Pasta Sauce', 'Chocolate', 'Jam', 'Custard']}, 'Epsom and Ewell Foodbank': {'address': 'Generation Resource Centre, Ruxley Lane, Ewell, Surrey  KT19 0JG', 'latitude': '51.36399540000001', 'longitude': '-0.2688250999999582', 'website': 'http:\\/\\/epsomewell.foodbank.org.uk', 'items_needed': ['Cooking sauces', 'Sponge puddings', 'Tinned veg', 'Sugar (small packets only please)', 'Nappies size 6', 'Shampoo / Conditioner']}, 'Erdington Foodbank': {'address': '10 Wood End Rd, Birmingham, West Midlands B24 8AD, UK', 'latitude': '52.52145578062638', 'longitude': '-1.8432200841308486', 'website': 'https:\\/\\/erdington.foodbank.org.uk\\/', 'items_needed': ['Soup', 'Tinned tomatoes', 'Pasta sauce', 'Tinned vegetables', 'Tinned meat', 'Tinned fruit', 'Tinned rice pudding', 'Tinned custard', 'Tea bags - packs of 40 or 80', 'Tinned vegetarian meals', 'Bags of sugar', 'Toilet rolls']}, 'Euston Foodbank': {'address': 'St. Pancras Church House,  1 Lancing Street,  London,  NW1 1NA', 'latitude': '51.528673167964556', 'longitude': '-0.13155414418031341', 'website': 'http:\\/\\/euston.foodbank.org.uk', 'items_needed': ['tins of fruit', 'instant coffee', 'tins of meat', 'UHT milk - all types', 'long life juice', 'seasonal chocolate']}, 'Exeter Foodbank': {'address': 'Fore Street, Exeter EX4 3AT, United Kingdom', 'latitude': '50.7215131', 'longitude': '-3.5343465999999353', 'website': 'http:\\/\\/exeterfoodbank.org.uk', 'error': 'Bad status code'}, 'Falkirk Foodbank': {'address': 'Unit 1 Tamfourhill Industrial Estate Tamfourhill Avenue Falkirk FK1 4RT', 'latitude': '55.9987532', 'longitude': '-3.8245729', 'website': 'http:\\/\\/falkirk.foodbank.org.uk', 'items_needed': ['Tinned potatoes', 'Biscuits', 'Long life fruit juice', 'UHT milk (1 litre)', 'Breakfast Cereals']}, 'Fallowfield &amp; Withington Foodbank': {'address': 'Union Chapel Fallowfield Baptist, 2 Wellington Road, Manchester, Manchester M14 6EQ, UK', 'latitude': '53.442327', 'longitude': '-2.223379', 'website': 'http:\\/\\/fallowfieldwithington.foodbank.org.uk\\/', 'items_needed': ['Laundry capsules - we can bag these up in smaller amounts', 'Tins of meat', 'Tinned meat meals like chilli con carne, stewed steak etc', 'Tins of fish', 'Breakfast cereals', 'Long-life milk - all types please', 'Long-life fruit juice', 'Tins/cartons of fruit', 'puddings - like sponge puds etc', 'Tins of rice pudding or custard', 'Tins of tomatoes', 'Toiletries', 'Small jars of coffee', 'biscuits and treats', 'pasta sauces', 'Tea bags']}, 'Farnborough Foodbank': {'address': "St Christopher's Church, 55 Cove Road, Cove, Farnborough, Hampshire, GU14 0EX", 'latitude': '51.26057031610076', 'longitude': '-0.7629428352904597', 'website': 'http:\\/\\/farnborough.foodbank.org.uk', 'items_needed': ['1 Litre carton Breakfast Juice', '1 Litre bottle of squash', 'tinned pie', 'tinned meat - chicken or beef', 'tinned fish', 'tinned spaghetti', 'tinned tomatoes', 'tinned fruit', 'tinned rice pudding', 'instant packet custard ', 'jars bolognese/pasta sauce', 'cup-a-soup boxes', 'sponge puddings', 'deodorant', 'shampoo and shower gel', 'all purpose cleaner', 'washing machine tablets', 'Your generosity is truly wonderful.', 'text "foodbank 10" to "70085" and donate £10 directly to farnborough foodbank (1 - 20 £ accepted).']}, 'Farnham Foodbank': {'address': 'The Vineyard Centre, Church House, Union Road, Farnham, Surrey, GU9 7PT', 'latitude': '51.2137879', 'longitude': '-0.7964583', 'website': 'http:\\/\\/farnham.foodbank.org.uk', 'items_needed': ['Instant Mash', 'Biscuits', 'Instant Custard', 'Tinned Meat', 'Instant Tea', 'Tinned Peas', 'Tinned Carrots']}, 'Farnworth &amp; Kearsley Foodbank': {'address': 'The Well, Trafford Street, Farnworth BL4 7PQ', 'latitude': '53.5515175', 'longitude': '-2.3945046', 'website': 'http:\\/\\/farnworthkearsley.foodbank.org.uk', 'items_needed': ['Long-life fruit juice', 'Tinned tomatoes', 'Rice Pudding', 'Instant mash', 'Rice', 'Biscuits/Chocolate bars', 'UHT Milk', 'Jam', 'Shampoo/Shower Gels', 'Carrier Bags']}, 'Faversham Foodbank': {'address': '1 Tanners St, Faversham ME13 7JL, UK', 'latitude': '51.31593383229472', 'longitude': '0.8851978711638822', 'website': 'http:\\/\\/faversham.foodbank.org.uk\\/', 'items_needed': ['Tinned Fish', 'Sponge Puddings', 'Washing up liquid', 'Long Life Fruit Juice', 'Shampoo & Shower Gel', 'Custard', 'Dog food']}, 'Flintshire Foodbank': {'address': 'Mold CH7 6NW, UK', 'latitude': '53.1780055', 'longitude': '-3.1374812999999903', 'website': 'http:\\/\\/flintshire.foodbank.org.uk', 'items_needed': ['Tinned/packet potatoes', 'Tinned rice pudding', 'Tinned/packet custard', 'Toothpaste', 'Soap']}, 'Fosse Foodbank': {'address': 'Warwick Rd, Kineton, Warwick CV35, UK', 'latitude': '52.15676614263693', 'longitude': '-1.5109089476073905', 'website': 'http:\\/\\/fosse.foodbank.org.uk', 'items_needed': ['tinned sponge puddings', 'Fruit juice', 'tins of potatoes']}, 'Foyle Foodbank': {'address': '7-11 Springtown Rd, Londonderry BT48 0LY, UK', 'latitude': '55.017578887164994', 'longitude': '-7.329903244972229', 'website': 'https:\\/\\/foyle.foodbank.org.uk', 'items_needed': ['tinned fruit (400gms)', "tea bags (80's)", 'dried pasta (500gms)', 'UHT milk (1 litre)', 'Breakfast Cereals']}, 'Fylde Foodbank': {'address': "United Reformed Church St George's Road Lytham St Anne's FY8 2AE", 'latitude': '53.751824126620406', 'longitude': '-3.0336132645606995', 'website': 'http:\\/\\/fylde.foodbank.org.uk\\/', 'items_needed': ['Nothing specific at the moment, thank you.']}, 'Gateshead Foodbank': {'address': 'Gateshead Advice Centre, The Davidson Building, Swan Street, Gateshead, NE8 1BG', 'latitude': '54.9637974', 'longitude': '-1.5999091', 'website': 'http:\\/\\/gateshead.foodbank.org.uk', 'items_needed': ['Coffee', 'Fruit - Tinned', 'Fruit Juice - Long Life', 'Milk - Long Life', 'Pasta Sauce', 'Sauces (Tomato and brown)', 'Sponge Puddings']}, 'Gillingham Foodbank': {'address': '11 High St, Gillingham SP8 4PP, UK', 'latitude': '51.03689379063759', 'longitude': '-2.272604175393667', 'website': 'http:\\/\\/gillingham.foodbank.org.uk', 'items_needed': ['Thanks to your generosity, we are not short of anything!']}, 'Glasgow NE Foodbank': {'address': '142 Helenvale St, Glasgow, Glasgow City G31 4NA, UK', 'latitude': '55.84816213560065', 'longitude': '-4.198630263159885', 'website': 'http:\\/\\/glasgowne.foodbank.org.uk\\/', 'items_needed': ["Men's toiletries, ", 'tinned vegetables', 'UHT milk (1 litre)', 'Breakfast Cereals', 'Cartons of Juice']}, 'Glasgow NW Foodbank': {'address': 'Blawarthill Parish Church, Millbrix Ave, Glasgow, Glasgow City G14 0EP, UK', 'latitude': '55.8858861', 'longitude': '-4.3645669', 'website': 'http:\\/\\/glasgownw.foodbank.org.uk\\/', 'items_needed': ['Tinned potatoes', 'Tinned vegetables', 'Tinned fruit', 'Sugar', 'Jam', 'UHT Milk', 'Toiletries - shampoo, razors, deodorant, toothbrushes', 'Household cleaning products - washing up liquid', 'Toilet roll']}, 'Glasgow SE Foodbank': {'address': '173 Butterbiggins Road Govanhill GLASGOW Glasgow G42 7AS', 'latitude': '55.8404077', 'longitude': '-4.2579588', 'website': 'http:\\/\\/glasgowse.foodbank.org.uk', 'items_needed': ['Tinned Meat', 'Tinned Rice/Custard', 'UHT milk (1 litre)', 'Tinned Tomatoes/Pasta Sauce', 'Tinned Fruit', 'Tinned Fish', 'Soap/Toothpaste', 'Tinned/Packet Potatoes']}, 'Glasgow SW Foodbank': {'address': 'Ibrox Parish Church, Clifford Street, Glasgow, G51 1QL', 'latitude': '55.8502899', 'longitude': '-4.3013329', 'website': 'http:\\/\\/glasgowsw.foodbank.org.uk\\/', 'error': 'No items found'}, 'Gleadless Valley Foodbank': {'address': 'Gleadless Valley Methodist Church, Blackstock Road, Sheffield, S14 1FT', 'latitude': '53.3433923', 'longitude': '-1.447529', 'website': 'http:\\/\\/gleadlessvalley.foodbank.org.uk', 'items_needed': ['tinned fruit (400gms)', "tea bags (80's)", 'dried pasta (500gms)', 'UHT milk (1 litre)', 'Breakfast Cereals']}, 'Glenrothes Foodbank': {'address': 'Glenrothes Foodbank, Glenrothes, United Kingdom', 'latitude': '56.18999290000001', 'longitude': '-3.179162099999985', 'website': 'http:\\/\\/glenrothes.foodbank.org.uk\\/', 'items_needed': ['UHT Milk', 'UHT Milkshakes', 'Toiletries', 'Tinned Potatoes', 'Custard', 'Rice Pudding', 'Tinned  Meat']}, 'Gloucester Foodbank': {'address': 'George Whitefield Centre, 107 Great Western Road, Gloucester, Gloucestershire, GL1 3NF', 'latitude': '51.8667528', 'longitude': '-2.2384213', 'website': 'http:\\/\\/gloucester.foodbank.org.uk\\/', 'items_needed': ['Long Life Fruit Juice (not chilled)', 'Long Life Milk (not chilled)', 'Instant Mash Potato', 'Tinned Ready Meals', 'Tinned Cold Meat (e.g.ham/corned beef)', 'Squash', 'Tinned Custard', 'Tinned Potatoes', 'Shampoo', 'Shower Gel']}, 'Godmanchester Foodbank': {'address': 'Godmanchester Baptist Church East Chadley Lane, Godmanchester, Huntingdon, PE29 2BJ', 'latitude': '52.3196652', 'longitude': '-0.171056', 'website': 'http:\\/\\/godmanchester.foodbank.org.uk\\/', 'items_needed': ['UHT Milk', 'Tinned veg - peas, carrots, sweetcorn', 'Tinned meat - hot and cold', 'Tinned potatoes', 'Instant mashed potatoes', 'Breakfast cereal', 'Sugar (500g packets)']}, 'Grantham Foodbank': {'address': 'Unit 1-2 Grey Friars Grantham NG31 6PG', 'latitude': '52.9123952', 'longitude': '-0.6461274000000685', 'website': 'http:\\/\\/granthamfoodbank.org.uk\\/wpress\\/', 'error': 'Bad status code'}, 'Gravesham Foodbank': {'address': 'Riverside Community Centre, Dickens Road, Gravesend, Kent, DA12 2JY', 'latitude': '51.435006', 'longitude': '0.3919123', 'website': 'http:\\/\\/gravesham.foodbank.org.uk', 'items_needed': ['UHT Milk', 'Rice', 'Tinned Potatoes', 'Tinned Meat', 'Spreads - jam, peanut butter', 'Tinned Rice Pudding', 'Tinned Custard', 'Instant packets of noodles', 'Juice and Squash', 'Shampoo']}, 'Great Barr Foodbank': {'address': 'Broome Avenue, Birmingham B43 5AL, United Kingdom', 'latitude': '52.53827', 'longitude': '-1.9514647999999397', 'website': 'http:\\/\\/greatbarr.foodbank.org.uk\\/', 'items_needed': ['tinned fruit (400gms)', "tea bags (80's)", 'dried pasta (500gms)', 'UHT milk (1 litre)', 'Breakfast Cereals']}, 'Greenwich Foodbank': {'address': '20 Orangery Lane,  Greenwich,  London,  SE9 1HN', 'latitude': '51.4520092', 'longitude': '0.05403069999999843', 'website': 'http:\\/\\/greenwich.foodbank.org.uk\\/', 'items_needed': ['tinned fruit', 'tinned peas', 'tinned carrots', 'longlife fruit juice', 'tinned rice/custard']}, 'Hackney Foodbank': {'address': 'Florence Bennett Centre, London N1, UK', 'latitude': '51.53153963563203', 'longitude': '-0.08464212499234236', 'website': 'http:\\/\\/hackney.foodbank.org.uk', 'items_needed': ['Tinned meat', 'Tinned veg', 'Long life orange juice', 'Toilet roll', 'Peanut Butter', 'Tinned & cuppa soup', 'Washing-up liquid', 'Jars of curry sauce', 'Washing detergent tablets', 'Deodorant']}, 'Hailsham Foodbank': {'address': 'Market Square, Hailsham, UK', 'latitude': '50.8617198', 'longitude': '0.261294600000042', 'website': 'http:\\/\\/hailsham.foodbank.org.uk', 'items_needed': ['Toilet Rolls', 'Size 4, 5 and 6 nappies', 'Tomato Ketchup/Brown Sauce', 'Peanut butter, chocolate spread, marmite', 'Sponge puddings/lcakes with long BB date', 'Soap ', 'Washing machine tablets and washing up liquid']}, 'Hamilton District Foodbank': {'address': '22 Townhead Street, Hamilton, United Kingdom', 'latitude': '55.7754176', 'longitude': '-4.033117299999958', 'website': 'http:\\/\\/hamiltondistrict.foodbank.org.uk\\/', 'items_needed': ['UHT milk', 'Sugar', 'Diluting Juice', 'Tinned Fruit', 'Tinned Rice Pudding / Custard', 'Tinned Tomatoes', 'Tinned Fish', 'Tinned Veg', 'Pasta / Rice', 'Coffee / Tea', 'Biscuits / Chocolate', 'Tolietries']}, 'Hammersmith and Fulham Foodbank': {'address': 'St Matthews Church, Wandsworth Bridge Rd, Fulham, London SW6 2TX, UK', 'latitude': '51.4689012165866', 'longitude': '-0.19054434907377527', 'website': 'http:\\/\\/www.hammersmithfulham.foodbank.org.uk', 'items_needed': ['Long life/UHT Milk and Juice', 'Tinned fruit', 'Tinned vegetables (sweetcorn, carrots, peas etc)', 'Tinned Meat - corned beef, chicken, mince, hot dogs, tinned meat pies, etc', 'Bags of rice (500g or 1 kg please - as people have to carry them home!', 'Tinned Rice Pudding', 'Breakfast Cereals - no porridge please, we have plenty.', 'Sponge Pudding/Jelly/Angel Delight etc etc - all long-life please!', 'Instant coffee/hot chocolate - small jars please', 'Spreads - jam, peanut butter, honey']}, 'Handsworth Birmingham Foodbank': {'address': 'New Life Wesleyan Church Holyhead Road Handsworth Birmingham B21 0LA', 'latitude': '52.5048785', 'longitude': '-1.9444446', 'website': 'http:\\/\\/handsworthbirmingham.foodbank.org.uk\\/', 'items_needed': ['tinned fruit (400gms)', "tea bags (80's)", 'dried pasta (500gms)', 'UHT milk (1 litre)', 'Breakfast Cereals']}, 'Handsworth Foodbank': {'address': 's13 8Tb', 'latitude': '53.370881871950324', 'longitude': '-1.3873271943039072', 'website': 'http:\\/\\/handsworth.foodbank.org.uk\\/', 'items_needed': ['tinned fruit (400gms)', "tea bags (80's)", 'dried pasta (500gms)', 'UHT milk (1 litre)', 'Breakfast Cereals']}, 'Harlow Foodbank': {'address': 'Store House Unit 8 Housham Hall Farm Harlow Road Matching Tye Harlow CM17 0PB ', 'latitude': '51.7866474', 'longitude': '0.17944450000004508', 'website': 'http:\\/\\/www.mrct.org.uk', 'error': 'No items found'}, 'Harold Hill Foodbank': {'address': 'Unit 1 Guardian Business Centre Faringdon Avenue Harold Hill ROMFORD Essex RM38FD', 'latitude': '51.598245', 'longitude': '0.2196509', 'website': 'http:\\/\\/haroldhill.foodbank.org.uk', 'items_needed': ['UHT Fruit Juice', 'Tinned Custard', 'Rice Puding', 'Tinned Meat', 'Tinned Fruit', 'Instant Mash Potato', 'Sponge Puddings', 'Pasta Sauce (jars)']}, 'Harrogate District Foodbank': {'address': 'Mowbray Community Church Westmoreland Street Harrogate HG1 5AT', 'latitude': '53.9972256', 'longitude': '-1.5298442', 'website': 'http:\\/\\/harrogatedistrict.foodbank.org.uk\\/', 'items_needed': ['Long Life Fruit Juice', 'Long Life Milk', 'Pasta Sauce', 'Chocolate', 'Sponge Puddings', 'Washing Up Liquid', 'Sugar', 'Shower Gel', 'Shaving Foam', 'Razors', 'Shampoo']}, 'Harrow Foodbank': {'address': 'Unit F2 Phoenix Business Centre, Harrow, Greater London HA1 2RZ, UK', 'latitude': '51.5885312', 'longitude': '-0.32866169999999784', 'website': 'http:\\/\\/harrow.foodbank.org.uk\\/', 'items_needed': ['tinned vegetarian meals', 'tinned chicken meals', 'small bottles cooking oil', 'small bottles ketchup', 'salt', 'jars of sauce (not pasta)', 'packets sauce']}, 'Hart Foodbank': {'address': 'GU52 7TF', 'latitude': '51.27389150529455', 'longitude': '-0.840381105029337', 'website': 'http:\\/\\/hart.foodbank.org.uk', 'items_needed': ['Custard', 'Rice Pudding', 'Jam', 'Coffee', 'Biscuits', 'Tinned Vegetables', 'Tinned Meat', 'Pasta Sauce', 'Instant Mash', 'Sponge Puddings', 'Washing-up Liquid']}, 'Hartlepool Foodbank': {'address': '28 Church Street, Hartlepool, TS24 7DH', 'latitude': '54.6862186', 'longitude': '-1.2065355', 'website': 'http:\\/\\/hartlepool.foodbank.org.uk', 'items_needed': ['tinned fruit (400gms)', 'savoury snacks', 'tinned vegetables', 'tinned meat', 'biscuits', 'UHT milk', 'sweet snacks', 'coffee', 'pasta sauce']}, 'Hastings Foodbank': {'address': 'The Hastings Centre the Ridge, The Ridge, Hastings TN34 2SA, UK', 'latitude': '50.88683166034509', 'longitude': '0.5698881423278408', 'website': 'http:\\/\\/hastings.foodbank.org.uk', 'items_needed': ['Tinned meat', 'Pasta sauce', 'Tinned vegetables', 'Tinned Spaghetti (no meat)', 'Tinned Potatoes', "Tea bags 40's and 80's", 'Tinned Rice Pudding', 'Tinned Fish', 'Tinned Custard', 'UHT Milk', 'Tinned fruit']}, 'Hatfield Foodbank': {'address': 'GRACEMEAD HOUSE, Woods Ave, Hatfield AL10 8HX, UK', 'latitude': '51.76187039202206', 'longitude': '-0.22756873372952668', 'website': 'https:\\/\\/hatfield.foodbank.org.uk', 'items_needed': ['Peanut Butter', 'Honey', 'Chocolate Spread', 'Tomato Ketchup', 'Mayonaisse', 'Deodorant', 'Shampoo', 'Shower Gel', 'Nappies size 4,5,6', 'Washing Up Liquid', 'Washing Powder']}, 'Haverhill Foodbank': {'address': 'Reach Resource Centre, 5 Gloucester Rd, Haverhill, CB9 8JL', 'latitude': '52.0786072', 'longitude': '0.4276347', 'website': 'http:\\/\\/www.reachhaverhill.org.uk\\/', 'error': 'Bad status code'}, 'Haywards Heath Foodbank': {'address': '9 Sussex Road Haywards Heath West Sussex RH16 4DZ', 'latitude': '50.9944672', 'longitude': '-0.1002048', 'website': 'http:\\/\\/haywardsheath.foodbank.org.uk', 'items_needed': ['Tinned meat', 'Tinned potatoes', 'Instant mashed potatoes (smash)', 'Tinned vegetables', 'Rice pudding', 'Custard', 'Longlife sponge puddings', 'Jars of instant coffee', 'Longlife milk', 'Longlife fruit juice', 'Shampoo', 'Shower gel', 'Toothbrushes', 'Toothpaste', 'Biscuits', 'Snacks']}, 'Helston and Lizard Foodbank': {'address': '14-16 Wendron Street, Helston, Cornwall, TR13 8PS', 'latitude': '50.101811', 'longitude': '-5.27275', 'website': 'http:\\/\\/helstonthelizard.foodbank.org.uk\\/', 'items_needed': ['Coffee', 'Fruit Juice', 'Biscuits', 'Mashed Potatoes', 'Crisps', 'Sponge Puddings']}, 'Hertford &amp; District Foodbank': {'address': 'Cowbridge, Hertford SG14 1PQ, UK', 'latitude': '51.7980383386697', 'longitude': '-0.08158864655763409', 'website': 'http:\\/\\/hertforddistrict.foodbank.org.uk\\/', 'error': 'No items found'}, 'Highbridge Area Foodbank': {'address': 'Hope Baptist Church Church Street Highbridge TA9 3HW', 'latitude': '51.2209403', 'longitude': '-2.9756773', 'website': 'http:\\/\\/highbridgearea.foodbank.org.uk', 'items_needed': ['tinned fruit (400gms)', "tea bags (80's)", 'Fruit Juice (long life)', 'UHT milk (1 litre)', 'Breakfast Cereals']}, 'Highland Foodbank - Alness &amp; Invergordon': {'address': 'Capstone Centre 1-3 Obsdale Road Alness IV17 0TY', 'latitude': '57.6957475', 'longitude': '-4.249616199999991', 'website': 'https:\\/\\/www.blythswood.org\\/highland-foodbank', 'error': 'No items found'}, 'Highland Foodbank - Badenoch and Strathspey': {'address': 'St Andrews Church Hall,  Grampian Road,  Aviemore, PH22 1RH', 'latitude': '57.1944063', 'longitude': '-3.8288411999999425', 'website': 'https:\\/\\/www.blythswood.org\\/highland-foodbank', 'error': 'No items found'}, 'Highland Foodbank - Caithness': {'address': 'Thurso, Thurso, Highland KW14 7BQ, UK', 'latitude': '58.59439019999999', 'longitude': '-3.5222956999999724', 'website': 'https:\\/\\/www.blythswood.org\\/highland-foodbank', 'error': 'No items found'}, 'Highland Foodbank - Dingwall': {'address': 'Dingwall Free Church, High St, Dingwall IV15 9HA', 'latitude': '57.59461469999999', 'longitude': '-4.423865200000023', 'website': 'https:\\/\\/www.blythswood.org\\/highland-foodbank', 'error': 'No items found'}, 'Highland Foodbank - Inverness & Nairn': {'address': '17 Glebe St, Inverness IV1 1RF, UK', 'latitude': '57.481862493447586', 'longitude': '-4.230895974205055', 'website': 'https:\\/\\/www.blythswood.org\\/highland-foodbank', 'error': 'No items found'}, 'Highland Foodbank - Tain': {'address': 'St. Duthus House St. Duthus Street Tain IV19 1AL', 'latitude': '57.811527', 'longitude': '-4.055823799999985', 'website': 'https:\\/\\/www.blythswood.org\\/highland-foodbank', 'error': 'No items found'}, 'Hillingdon Foodbank': {'address': '30, Oxford Road New Denham Uxbridge UB9 4DQ', 'latitude': '51.55206', 'longitude': '-0.48660530000006474', 'website': 'https:\\/\\/hillingdon.foodbank.org.uk', 'items_needed': ['Long life juice / squash', 'UHT milk / powdered milk.', 'Tinned fruit ', 'Tinned meat and fish']}, 'Hinckley Area Foodbank': {'address': '11 Deveron Way, Hinckley LE10 0XD, UK', 'latitude': '52.544005847347165', 'longitude': '-1.3879689962951715', 'website': 'http:\\/\\/hinckleyarea.foodbank.org.uk', 'items_needed': ['CEREAL - Medium (13-17 portions)', 'SOUP - packets or sachets', 'BEANS/SPAGHETTI Tinned - Small (200 g)', 'VEG Tinned - Small (up to 200 g)', 'VEG CARROTS - Tinned Medium (300 g)', 'VEG Tinned - Large (325 g+)', 'MEAT COLD Tinned (ham/corned beef)', 'MEAT HOT Tinned (400 g)', 'FISH Tinned - Medium (160 - 245 g)', 'FRUIT Tinned - Small (up to 350 g)', 'FRUIT Tinned (400 g to 440 g)', 'RICE PUDDING (400 g)', 'SPONGE PUDDING - Standard (300 g)', 'BISCUITS - Large (400 g+)', 'Instant COFFEE - Small (100 g)', 'Instant COFFEE - Medium (200 g)', 'INSTANT DRINKING CHOCOLATE (made with water)', 'Long Life FRUIT JUICE (NOT chilled)', 'UHT MILK (500 g)', 'Powdered MILK (340 - 450 g)', 'UHT MILK (1 Litre)', 'INSTANT MASH (180 g)', 'RICE - Small (up to 500 g)', 'SNACKS Tinned (400 g)', 'JAM', 'Instant SNACK NOODLES', 'PASTA SNACKS - Packets', 'DEODORANT  (Male & Female)', 'TOOTHPASTE', 'SHAVING FOAM', 'RAZORS', 'TIN OPENERS', 'WASHING POWDER  (Small)', 'BABY WIPES', 'Supermarket CARRIER BAGS (Long Life)', 'DOG FOOD (<400 g tins or pouches)', 'SPAGHETTI IN SAUCE - Tinned (400 g)', 'small packs of NAPPIES (size 3)', 'CEREAL - Extra Large (26+ portions)', 'small packs of NAPPIES (size 4)', 'small packs of NAPPIES (size 5)', 'small packs of NAPPIES (size 6)', 'SUGAR (500 g only please)', 'SOUP - Tinned  (400 g)', 'RICE PUDDING - Large (625 g)', 'INSTANT CUSTARD (made with water)', 'POTATOES Tinned - Small (300 g)', 'RICE - 1 Kg', 'SAUCES AND KETCHUP', 'WASHING UP LIQUID (<400 - 500 ml)', 'BABY FOOD', 'small packs of NAPPIES (size 2)', '(Updated  06/08/2019)']}, 'Horsham District Foodbank': {'address': 'Micah House, Blatchford Road, Horsham, RH13 5QR', 'latitude': '51.0694967', 'longitude': '-0.30854', 'website': 'http:\\/\\/horshamdistrict.foodbank.org.uk\\/', 'items_needed': ['Coffee', 'Sponge Puddings']}, 'Hull Foodbank': {'address': '31-33 Waltham St, Hull, Kingston upon Hull HU1 3SL, UK', 'latitude': '53.74593648778995', 'longitude': '-0.34105764418029594', 'website': 'http:\\/\\/hull.foodbank.org.uk\\/', 'items_needed': ['Tinned Meat', 'Tinned Fruit', 'UHT Milk', 'Tinned Fish', 'Fruit Juice', '* also desperately short of strong carrier bags']}, 'Hunstanton and District Foodbank': {'address': 'Hunstanton PE36 6BE, United Kingdom', 'latitude': '52.9407687', 'longitude': '0.49020530000007057', 'website': 'https:\\/\\/hunstantondistrict.foodbank.org.uk', 'items_needed': ['Breakfast cereals', 'Washing powder', 'Fruit juice (long life)']}, 'Inverclyde Foodbank': {'address': '64-66 West Blackhall Street Greenock PA15 1XG', 'latitude': '55.9509357', 'longitude': '-4.761586', 'website': 'http:\\/\\/inverclyde.foodbank.org.uk', 'items_needed': ['tinned fruit (400gms)', "tea bags (80's)", 'dried pasta (500gms)', 'UHT milk (1 litre)', 'Breakfast Cereals']}, 'Irlam and Cadishead Foodbank': {'address': 'Boundary Road Methodist Church Boundary Road Irlam M44 6HD', 'latitude': '53.4547472', 'longitude': '-2.4106535999999323', 'website': 'https:\\/\\/irlamcadishead.foodbank.org.uk', 'items_needed': ['Non-Perishable foods Only, please. Updated 14MAY18', 'Sponge Puddings', 'Jams', 'Long-Life Milk (Long Dated, please) - LOW STOCK', 'Biscuits', 'Toothpaste and Tooth Brushes - LOW STOCK', 'Tinned Custard', 'Rice Pudding', 'Washing Liquid/Tabs']}, 'Isle of Wight Foodbank': {'address': 'Isle of Wight Foodbank, Love Ln, Cowes PO31 7ET, UK', 'latitude': '50.7526603', 'longitude': '-1.3048295999999482', 'website': 'http:\\/\\/isleofwight.foodbank.org.uk', 'items_needed': ['Puddings', 'Custard', 'Tinned Spaghetti', 'Squash', 'Juice', 'Hand Soap and Hand Gel', 'Shampoo, Deodorant, Shaving products']}, 'Islington Foodbank': {'address': 'Highbury Roundhouse Youth and Community Centre, 71 Ronalds Road, London, N5 1XB', 'latitude': '51.5507505', 'longitude': '-0.1036311', 'website': 'http:\\/\\/islington.foodbank.org.uk', 'items_needed': ['Cereal', 'Long life juice', 'Long life milk', 'Tinned fruit', 'Tinned rice pudding', 'Tea']}, 'Ivybridge Foodbank': {'address': 'Ivybridge Methodist Church, Fore Street, Ivybridge Devon PL21 9AB', 'latitude': '50.38891', 'longitude': '-3.9219045', 'website': 'http:\\/\\/ivybridge.foodbank.org.uk', 'items_needed': ['Thank you for all donations throughout 2019', 'We now have enough to see us through Christmas', 'Please now hold donations until the New Year']}, 'Kensington & Chelsea Foodbank': {'address': '240 Lancaster Road, London W11 4AH, United Kingdom', 'latitude': '51.51504049999999', 'longitude': '-0.21405000000004293', 'website': 'https:\\/\\/kensingtonchelsea.foodbank.org.uk', 'items_needed': ['Tinned fruit (400gms)', 'Tinned custard (400gms)', 'Coffee (small jars)/Hot Chocolate', 'UHT milk (1 litre)', 'Tinned vegetables (sweetcorn, Carrots, potatoes, green peas)', 'Tinned meat (Corned beef/Mince/Chicken)', 'Tinned fish', 'Jam/Honey/Marmite/Peanut butter/', 'Spaghetti hoops', 'Long-life fruit juice', 'Tinned Tomatoes', 'Soups with meat', 'Halal food items', "Toiletries - Deodorants/sanitary towels/men's razors/Toilet paper/Shower gels/single toothbrushes", 'Cereals - Cornflakes/Crunchy nut/Weetabix/Shreddies/Coco-pops']}, 'Kettering District Foodbank': {'address': '51 Gold St, Kettering, Northants, NN16 8JB', 'latitude': '52.4005668', 'longitude': '-0.7266135', 'website': 'http:\\/\\/www.kcultd.org.uk\\/foodbank\\/', 'error': 'Bad status code'}, 'Keynsham Foodbank': {'address': '91 Lays Drive, Keynsham BS31 2LD, United Kingdom', 'latitude': '51.409436', 'longitude': '-2.515230900000006', 'website': 'http:\\/\\/keynsham.foodbank.org.uk\\/', 'items_needed': ['tinned rice pudding', 'chocolates and sweets are always welcome!', 'laundry / cleaning items', 'savoury snacks', 'juice', 'dried powdered milk', 'tinned potatoes', 'tinned meat']}, 'Kidderminster Foodbank': {'address': 'Baxter Church Hall  The Bull Ring  Kidderminster  DY10 2AA', 'latitude': '52.38859679999999', 'longitude': '-2.2502027000000453', 'website': 'http:\\/\\/kidderminster.foodbank.org.uk\\/', 'error': 'No items found'}, "King's Lynn Foodbank": {'address': "St Margaret's Lane,  King's Lynn  PE30 5DS", 'latitude': '52.7510524', 'longitude': '0.3942180000000235', 'website': 'http:\\/\\/kingslynn.foodbank.org.uk', 'items_needed': ['Squash / LongLife Juice (Small containers)', 'Tinned Rice pudding & Sponge pudding', 'UHT / LongLife Milk', 'Tinned Meat']}, 'Kingfisher Foodbank': {'address': 'Auckland Hall, 25 Sunbeam Close, Birmingham, West Midlands B36 9JR, UK', 'latitude': '52.5087426', 'longitude': '-1.7530045', 'website': 'http:\\/\\/kingfisherfoodbank.weebly.com\\/', 'error': 'Bad status code'}, 'Kingston Foodbank': {'address': '444 Ewell Road, Surbiton KT6 7EL, United Kingdom', 'latitude': '51.38186320000001', 'longitude': '-0.28172059999997145', 'website': 'http:\\/\\/kingston.foodbank.org.uk', 'items_needed': ['Breakfast Cereals (not porridge)', 'Tinned Meat and meat meals', 'Rice Pudding', 'Instant Custard', 'tinned spaghetti']}, 'Kinson &amp; West Howe Foodbank': {'address': 'St Andrews Church Centre Milhams Road Bournemouth BH10 7LN', 'latitude': '50.7711946', 'longitude': '-1.9038424', 'website': 'http:\\/\\/kinsonwesthowe.foodbank.org.uk\\/', 'items_needed': ['tinned fruit (400gms)', "tea bags (80's)", 'dried pasta (500gms)', 'UHT milk (1 litre)', 'Breakfast Cereals']}, 'Knottingley Foodbank': {'address': 'Knottingley, Knottingley, West Yorkshire WF11 9BU, UK', 'latitude': '53.7093722', 'longitude': '-1.2384785', 'website': 'http:\\/\\/knottingley.foodbank.org.uk\\/', 'items_needed': ['tinned fruit (400gms)', "tea bags (80's)", 'dried pasta (500gms)', 'UHT milk (1 litre)', 'Breakfast Cereals']}, 'Knowsley Foodbank': {'address': 'Huyton L36 6AP, United Kingdom', 'latitude': '53.4055224', 'longitude': '-2.8181921999999986', 'website': 'http:\\/\\/knowsley.foodbank.org.uk', 'items_needed': ['tinned fruit (400gms)', "tea bags (80's)", 'dried pasta (500gms)', 'UHT milk (1 litre)', 'Breakfast Cereals']}, 'Larne Foodbank': {'address': '10 Brustin Brae Rd, Larne BT40 2HS, UK', 'latitude': '54.86392288440838', 'longitude': '-5.836436453095303', 'website': 'http:\\/\\/larne.foodbank.org.uk\\/', 'items_needed': ['Instant mash', 'Cartons of juice', 'Toilet rolls', 'Tinned fruit', 'Long life milk (whole or semi-skimmed)', 'Tinned meat and fish']}, 'Launceston Foodbank': {'address': 'Unit 13D Newport Industrial Estate Launceston Cornwall PL15 8EX', 'latitude': '50.640124', 'longitude': '-4.3600652', 'website': 'http:\\/\\/launceston.foodbank.org.uk', 'items_needed': ['Tinned meat', 'Tinned fruit', 'Tinned vegetables', 'Instant mash potato', 'Sponge puddings', 'Tinned fish']}, 'Leeds North & West Foodbank': {'address': 'ls3 1jx', 'latitude': '53.8028729', 'longitude': '-1.5660162000000355', 'website': 'https:\\/\\/leedsnorthandwest.foodbank.org.uk\\/', 'items_needed': ['Coffee (small jars)', 'Milk', 'Tea (40s)', 'Custard', 'Longlife Fruit Juice', 'Sponge puddings', 'Chopped tinned tomatoes', 'Instant Mash', 'Fish']}, 'Leeds South & East Foodbank': {'address': '7 Lenton Drive Parkside Industrial Estate  LS11 5JW', 'latitude': '53.7710405', 'longitude': '-1.5423167000000149', 'website': 'http:\\/\\/leedssouthandeast.foodbank.org.uk\\/', 'items_needed': ['Coffee', 'Long Life Milk', 'Dilute/Long life Juice', 'Cooking sauce', 'Tinned Fruit', 'Tinned/Packet custard', 'Tinned rice pudding', 'Tinned Potatoes']}, 'Leek &amp; District Foodbank': {'address': '34 West Street, Leek, Staffordshire ST13 8AA, United Kingdom', 'latitude': '53.1066331', 'longitude': '-2.029639599999996', 'website': 'http:\\/\\/leekdistrict.foodbank.org.uk\\/', 'items_needed': ['Tinned vegetables, but not peas']}, 'Leicester South  Foodbank': {'address': 'Bull Head Street, 56 Bull Head St, Wigston, Leicestershire LE18 1PA, UK', 'latitude': '52.584154984023016', 'longitude': '-1.1031393294650798', 'website': 'http:\\/\\/leicestersouth.foodbank.org.uk\\/', 'items_needed': ['Tinned fruit', 'Coffee 250g', 'Tinned meat', 'Soup', 'Tinned fish', 'Tinned rice pudding', 'Pasta sauce', 'Tinned potatoes', 'Small tinned sponge puddings', 'Tinned tomatoes', '1ltr UHT fruit juice', 'Deodorants', 'Shampoo', 'Shower gel', 'Razors', 'Custard']}, 'Letchworth Foodbank': {'address': 'Mrs Howard Memorial Hall, Norton Way South, Letchworth Garden City, United Kingdom', 'latitude': '51.978168', 'longitude': '-0.22366139999996903', 'website': 'http:\\/\\/letchworth.foodbank.org.uk', 'error': 'No items found'}, 'Levenmouth Foodbank': {'address': 'Methil Evangelical Church Bowling Green Street Methil KY8 3DH', 'latitude': '56.1850726', 'longitude': '-3.0139761', 'website': 'https:\\/\\/levenmouth.foodbank.org.uk\\/', 'items_needed': ['tinned fruit (400gms)', "tea bags (80's)", 'dried pasta (500gms)', 'UHT milk (1 litre)', 'Breakfast Cereals']}, 'Lewisham Foodbank': {'address': 'Hope Centre, Malham Road, Forest Hill, London SE23 1AN', 'latitude': '51.4429071', 'longitude': '-0.04478599999993094', 'website': 'http:\\/\\/lewisham.foodbank.org.uk', 'items_needed': ['Corned beef', 'Tinned chicken', 'Tinned fish', 'Tinned tomatoes', 'Rice', 'Tinned fruit', 'Rice pudding', 'Shower gel', 'Biscuits', 'Jam', 'Sugar']}, 'Lichfield Foodbank': {'address': 'Wade Street Church, Lichfield, United Kingdom', 'latitude': '52.682104', 'longitude': '-1.8270692999999483', 'website': 'http:\\/\\/lichfield.foodbank.org.uk\\/', 'items_needed': ['Sugar (500g bags)', 'Red and Brown sauce', 'Breakfast bars (cereal/muesli style)']}, 'Lincoln Foodbank': {'address': 'Bridge Community Centre, 70a Newark Road, Lincoln, LN5 8PY', 'latitude': '53.209178', 'longitude': '-0.5489122', 'website': 'http:\\/\\/lincoln.foodbank.org.uk\\/', 'items_needed': ['UHT Milk', 'Meals', 'Tinned Desserts']}, 'Lisburn Foodbank': {'address': '1-3 Graham Gardens Lisburn BT28 1XE', 'latitude': '54.5120687', 'longitude': '-6.0458069', 'website': 'http:\\/\\/lisburn.foodbank.org.uk', 'items_needed': ['Tinned tomatoes', 'Diluted juice (1 litre)', 'Tinned potatoes', 'UHT milk (1 litre)', 'Pasta sauce', 'Tinned custard', 'Sugar']}, 'Liskeard &amp; Looe Foodbank': {'address': '3 Barras Pl, Liskeard, Cornwall PL14, UK', 'latitude': '50.456160052526045', 'longitude': '-4.465632793917848', 'website': 'http:\\/\\/liskeardlooe.foodbank.org.uk', 'items_needed': ['Fruit Juice (long life)', 'Meat (tinned) Ham, Corned Beef etc', 'Treats/Snacks', 'Vegetables (tinned) potatoes, carrots, peas etc', 'Christmas/Steamed Pudding']}, 'Littlehampton & District Foodbank': {'address': 'Fitzalan Road, Littlehampton, West Sussex BN17, UK', 'latitude': '50.8085296', 'longitude': '-0.5368411', 'website': 'http:\\/\\/littlehamptondistrict.foodbank.org.uk', 'items_needed': ['Hot chocolate', 'Tinned tomatoes', 'Toilet rolls', 'Deodorant, shampoo & soap', 'Instant mash', 'Tinned fish', 'UHT milk', 'Instant coffee', 'Dog food & cat food', 'Tinned vegetables', 'Sponge puddings', 'Tin openers']}, 'Llandrindod Foodbank': {'address': 'Crescent Chambers, South Crescent, Llandrindod Wells, Powys LD1 5DH, United Kingdom', 'latitude': '52.24058410000001', 'longitude': '-3.378599500000064', 'website': 'http:\\/\\/llandrindod.foodbank.org.uk\\/', 'items_needed': ['Tinned Fruit & Fruit Juice', 'Tinned Soup', 'Tinned Potatoes', 'Healthy Snack Foods', 'Washing up Liquid & Washing Powder']}, 'Llanelli Foodbank': {'address': 'Myrtle Terrace, Llanelli, Carmarthenshire SA15 1LH, United Kingdom', 'latitude': '51.67992719999999', 'longitude': '-4.154880100000014', 'website': 'http:\\/\\/llanelli.foodbank.org.uk\\/', 'items_needed': ['tinned fruit (400gms)', 'tinned fish/meat', 'dried pasta (500gms)', 'UHT milk (1 litre)', 'UHT fruit juice']}, 'Lochaber Foodbank': {'address': 'Unit 4, Airds Crossing, High Street, Fort William, PH33 6EU', 'latitude': '56.81952073310626', 'longitude': '-5.108826428172279', 'website': 'http:\\/\\/lochaber.foodbank.org.uk\\/', 'items_needed': ['tinned fruit (400gms)', "tea bags (40's)", 'tinned custard or rice', 'tinned tomatoes', 'Breakfast Cereals small', 'tinned veg', 'tinned ready meals']}, 'Long Eaton &amp; Sawley Foodbank': {'address': 'Long Eaton, Nottingham, Derbyshire NG10 4NE, UK', 'latitude': '52.9027723', 'longitude': '-1.2823672', 'website': 'http:\\/\\/longeatonsawley.foodbank.org.uk', 'items_needed': ['Tinned Tomatoes ', 'Tinned Fruit', 'Long Life Milk', 'Long Life Fruit Juice', 'Dried potato packets', 'Chocolate', 'Crisps/Snacks', 'Coffee']}, 'Loughborough Area Foodbank': {'address': 'LE11 4RL', 'latitude': '52.778921561754515', 'longitude': '-1.2400921269388618', 'website': 'https:\\/\\/loughborougharea.foodbank.org.uk', 'items_needed': ['Coffee', 'UHT Milk ', 'Long Life Juice', 'Tinned Meat', 'Tinned Fruit', 'Cooking Sauces', 'Tinned Fish', 'Tinned Rice Pudding or Custard', 'Spaghetti Hoops', 'Tinned Tomatoes', 'Rice', 'Pot Noodles', 'Washing Powder', 'Washing up Liquid', 'Size 5 & 6 Nappies', 'Any Toiletries']}, 'Lowestoft Foodbank': {'address': 'Lowestoft Community Church The Depot, 8 Hadenham Road,  Lowestoft NR33 7NF', 'latitude': '52.4450529', 'longitude': '1.7204586999999947', 'website': 'https:\\/\\/lowestoft.foodbank.org.uk', 'items_needed': ['Tinned Soup', 'Tinned Meat', 'Sponge puddings', 'Pasta Sauce', 'Tinned Fruit']}, 'Lutterworth and Villages Foodbank': {'address': 'Church Gate, Lutterworth, Leicestershire LE17 4AN, United Kingdom', 'latitude': '52.45519669999999', 'longitude': '-1.2023930000000291', 'website': 'http:\\/\\/lutterworthvillages.foodbank.org.uk\\/', 'items_needed': ['Coffee/Decaf Coffee', 'Tinned Meat', 'Tinned Fish', 'Vegetarian tinned meals', 'Long life Puddings', 'UHT Milk', 'Fruit juice', 'Rice', 'Squash', 'Tinned Potatoes', 'Tinned Fruit', 'Rice pudding', 'Custard', 'Hot Chocolate', 'Meat/Fish Paste', 'Pasta/Rice/Noodle Snacks', 'Snack & Cereal bars', 'Tinned snack meals - ravioli, beans & sausages etc', 'Shampoo/Conditioner', 'Jam/Peanut Butter/Honey', 'Crackers', 'Deodorant', 'Laundry Liquid/ Tablets', 'Toothbrushes/Toothpaste', 'Tinned Spaghetti', 'Tinned Tomatoes']}, 'Magherafelt Foodbank': {'address': 'Magherafelt Baptist Church, 6 Ballyronan Road, Magherafelt, Londonderry, BT45 6BP', 'latitude': '54.7526175', 'longitude': '-6.6028753', 'website': 'http:\\/\\/magherafelt.foodbank.org.uk\\/', 'items_needed': ['Any Toiletries ( Soap, Toothpaste, Tooth Brushes, Shaving Blades, shaving Foam,', 'Cereal ( Cheerios )', 'Coffee', 'Tinned Rice Tinned Custard Tinned Meat & Fish', 'Sponge Puddings & Biscuits', 'Dilute  Juice']}, 'Malmesbury &amp; District Foodbank': {'address': '15 West St, Malmesbury, Wiltshire SN16 0AR, UK', 'latitude': '51.58613395507426', 'longitude': '-2.1023213267653773', 'website': 'http:\\/\\/malmesburydistrict.foodbank.org.uk\\/', 'items_needed': ['Fruit Juice', 'coffee', 'pasta sauces', 'Marmite', 'Shower Gel', 'Washing Up Liquid', 'Laundry detergents']}, 'Malvern Hills Foodbank': {'address': '52.124636, -2.305310', 'latitude': '52.124636', 'longitude': '-2.30531', 'website': 'https:\\/\\/malvernhills.foodbank.org.uk', 'items_needed': ['Tinned corned beef (very low)', 'Tinned custard', 'Tinned potatoes', 'Pasta sauce (500g)', 'UHT milk (1l)', 'Instant coffee (100g)', 'Fruit juice (UHT, 1l)', 'Fruit squash (1l)', 'Sugar (500g)', 'Dog food', 'Cat food', "Women's and men's shower gel, shampoo, deodorant", "Children's bath care", 'Washing powder (1.5kg)', 'Washing up liquid', 'Surface cleaner', 'Nappies sizes 4 and 5', 'Kitchen rolls', 'Toilet rolls']}, 'Manchester Central Foodbank': {'address': 'Avila House RC Chaplaincy, Manchester M13, UK', 'latitude': '53.46471161413715', 'longitude': '-2.231562224915251', 'website': 'http:\\/\\/manchestercentral.foodbank.org.uk\\/', 'items_needed': ['UHT milk', 'Long-life fruit juice', 'Tinned Fruit', 'Toothbrushes', 'Tinned rice pudding']}, 'Manchester South Central Foodbank': {'address': 'Royce Road, Manchester, Manchester M15, UK', 'latitude': '53.467698', 'longitude': '-2.2551155', 'website': 'http:\\/\\/manchestersouthcentral.foodbank.org.uk\\/', 'items_needed': ['tinned fruit ', 'tinned rice pudding ', 'tinned tomatoes', 'UHT milk (1 litre)', 'tinned potatoes ']}, 'Market Drayton Foodbank': {'address': 'Church Street, Market Drayton TF9 1AF, United Kingdom', 'latitude': '52.9026343', 'longitude': '-2.485098600000015', 'website': 'http:\\/\\/marketdrayton.foodbank.org.uk', 'items_needed': ['***Food List updated Tuesday 24 December 2019 (in order of urgency)***', 'sponge puddings', '***Child Holiday Meals over Christmas***', 'Tins of chilli con carne', 'tins of minced beef', 'tins of hot dogs', 'tins of meat balls', 'tinned fruit', 'packets of rice', '**thank you**']}, 'Medway Foodbank': {'address': '19 Riverside 1, Sir Thomas Longley Road, Medway City Estate, ROCHESTER, Kent ME2 4DP', 'latitude': '51.3899219', 'longitude': '0.5181043000000045', 'website': 'http:\\/\\/medway.foodbank.org.uk', 'items_needed': ['Thursday 19th December 2019 STOP PRESS', 'We do apologise but our warehouse is now full.', 'May we ask you to store donations until mid January', 'Thank you for all your generosity and help.', '{', '{', '{', 'Shopping List January 2020 onwards', 'Milk UHT', 'Dried milk', 'Fruit juice UHT', 'Squash', 'Small packs of sugar 500g', 'Thank you so much!']}, 'Merthyr Cynon Foodbank': {'address': 'Lon Maes Du, Cefn-coed-y-cymmer, Merthyr Tydfil CF48, UK', 'latitude': '51.76783988732215', 'longitude': '-3.40576171875', 'website': 'http:\\/\\/merthyrcynon.foodbank.org.uk', 'items_needed': ['Squash', 'Tinned fruit', 'Tinned rice pudding', 'Mashed potatoes', 'Christmas treats', 'Chocolates', 'Jams', 'Instant coffee']}, 'Mid Cheshire Foodbank': {'address': 'Winsford CW7 2GN, United Kingdom', 'latitude': '53.1863313', 'longitude': '-2.557374500000037', 'website': 'http:\\/\\/midcheshire.foodbank.org.uk', 'items_needed': ['Long life milk', 'Long life fruit juice', 'Tinned fruit', 'Tinned vegetables', 'Sponge puddings', 'Cakes and chocolate', 'Toiletries', 'Tinned meat', 'Pasta sauce', 'Coffee']}, 'Mid Norfolk Foodbank': {'address': 'Wellspring Family Church 35 Neatherd Road Dereham NR19 2AE', 'latitude': '52.682402', 'longitude': '0.9459459', 'website': 'http:\\/\\/midnorfolk.foodbank.org.uk\\/', 'items_needed': ['tinned meat', 'tinned fruit', 'tinned rice pudding', 'long life fruit juice', 'sweet treats', 'long life milk', 'tea (small packs)', 'coffee']}, 'Middlesbrough Foodbank': {'address': '9-10 Wallis Rd, Middlesbrough TS6, UK', 'latitude': '54.571310821967614', 'longitude': '-1.1831919158692017', 'website': 'http:\\/\\/middlesbrough.foodbank.org.uk', 'items_needed': ['Long life juice', 'Tinned Carrots', 'Longlife milk', 'Tinned potatoes', 'Tinned Meat (e.g Chicken Casserole, Chicken in sauce, spaghetti bolognaise, ravioli)', 'Tinned meat (ham/cornedbeef/spam)', 'Tinned vegetarian meals (macaroni cheese)', 'Bottles of squash', 'Tinned fish']}, 'Middleton Central': {'address': 'Limetrees Rd, Middleton, Manchester M24, UK', 'latitude': '53.5487613688823', 'longitude': '-2.2017350881134234', 'website': 'http:\\/\\/middletoncentral.foodbank.org.uk\\/', 'items_needed': ['UHT milk (1 litre)', 'Sugar', 'Fruit Juice/Cordial', 'Tinned tomatoes', 'Tinned potatoes / Packet mash', 'Rice, pasta or noodles', 'Pasta Sauce / Curry Sauce', 'Soup', 'Tinned vegetables (any)', 'Tinned meat or fish', 'Tinned fruit', 'Rice pudding / sponge pudding or custard', 'Custard', 'Breakfast cereal', 'Jam or spread', 'Biscuits & snacks']}, 'Middlewich &amp; District Foodbank': {'address': '34-36 Brooks Lane, Middlewich, Cheshire East CW10 0JG, UK', 'latitude': '53.1890206', 'longitude': '-2.438789', 'website': 'http:\\/\\/middlewichdistrict.foodbank.org.uk\\/', 'items_needed': ['Tinned sponge puddings', 'Rice', 'Long life fruit juice', 'Cordial / squash']}, 'Midlothian Foodbank': {'address': '96 Hunterfield Road Gorebridge Midlothian EH23 4TT', 'latitude': '55.8450556', 'longitude': '-3.050349', 'website': 'http:\\/\\/midlothian.foodbank.org.uk\\/', 'items_needed': ['tinned fruit (400gms)', "tea bags (80's)", 'diluting juice', 'UHT milk (1 litre)', 'meat meals']},